名称,类型,经度,纬度,地址,省份,城市,区县
皖小能汽车充电站(肥西县山南镇龙嘴村村委会慢充),汽车服务;充电站;充电站,116.81833,31.54094,山南镇龙嘴村村民委员会山南镇龙嘴村,安徽省,合肥市,肥西县
安徽交控小井庄服务区电动汽车充电站(枞阳方向),汽车服务;充电站;充电站,116.792223,31.623267,山南镇德上高速合纵段地面停车场,安徽省,合肥市,肥西县
安徽交控小井庄服务区电动汽车充电站(合肥方向),汽车服务;充电站;充电站,116.793681,31.625421,山南镇德上高速合纵段,安徽省,合肥市,肥西县
皖小能汽车充电站(肥西县山南镇金牛社区居委会慢充),汽车服务;充电站;充电站,116.79717,31.657913,金牛社区居委会山南镇315省道,安徽省,合肥市,肥西县
皖小能汽车充电站(肥西县山南镇三合村村委会慢充),汽车服务;充电站;充电站,116.77398,31.63895,三合村村委会山南镇,安徽省,合肥市,肥西县
皖小能汽车充电站(肥西县山南镇陡岗村村委会慢充),汽车服务;充电站;充电站,116.826965,31.576813,山南镇陡岗社区居民委员会056乡道与236省道交叉口东南160米,安徽省,合肥市,肥西县
皖小能汽车充电站(肥西县山南镇炉墩村村委会慢充),汽车服务;充电站;充电站,116.800156,31.567385,炉墩村村民委员会山南镇炉墩村,安徽省,合肥市,肥西县
皖小能汽车充电站(肥西县山南镇林业村村委会慢充),汽车服务;充电站;充电站,116.802795,31.620197,中共林业村支部委员会山南镇林业村村委会附近,安徽省,合肥市,肥西县
皖小能汽车充电站(肥西县铭传乡启明区居委会慢充),汽车服务;充电站;充电站,116.79133,31.721693,铭传乡刘老圩,安徽省,合肥市,肥西县
皖小能汽车充电站(肥西县山南镇华山村村委会慢充),汽车服务;充电站;充电站,116.82818,31.655756,山南镇华山村村民委员会山南镇华山村,安徽省,合肥市,肥西县
皖小能汽车充电站(肥西县山南镇金圩村村委会慢充),汽车服务;充电站;充电站,116.77911,31.615988,山南镇金圩村党群服务中心,安徽省,合肥市,肥西县
皖小能汽车充电站(肥西县山南镇上圩村村委会慢充),汽车服务;充电站;充电站,116.78907,31.684504,山南镇山南镇上村党群服务中心,安徽省,合肥市,肥西县
皖小能汽车充电站(肥西县山南镇长庄村太空莲基地慢充),汽车服务;充电站;充电站,116.816696,31.634073,山南镇地面停车场,安徽省,合肥市,肥西县
皖小能汽车充电站(肥西县柿树岗乡李嘴村村委会慢充),汽车服务;充电站;充电站,116.846344,31.568375,李嘴村村民委员会人社社保服务窗口(李嘴村党群服务中心)东南侧,安徽省,合肥市,肥西县
皖小能汽车充电站(肥西县山南镇兴庄村村委会慢充),汽车服务;充电站;充电站,116.846756,31.623148,山南镇兴庄村村民委员会山南镇兴庄村,安徽省,合肥市,肥西县
皖小能汽车充电站(肥西县山南镇新圩村村委会慢充),汽车服务;充电站;充电站,116.787544,31.593147,山南镇新圩村村民委员会S102(阜阳北路),安徽省,合肥市,肥西县
皖小能汽车充电站(肥西县山南镇洪桥村村委会慢充),汽车服务;充电站;充电站,116.83189,31.595985,山南镇洪桥村村民委员会山南镇洪桥村,安徽省,合肥市,肥西县
超翔汽车充电站(庐江县好旺圆大酒店),汽车服务;充电站;充电站,117.44452,31.148321,龙桥镇好旺圆大酒店龙桥大道与滨河路停车场,安徽省,合肥市,庐江县
汽车充电站(闪烁充电矾山文旅综合体站),汽车服务;充电站;充电站,117.424037,31.098348,桥头饭店附近,安徽省,合肥市,庐江县
驴充充汽车充电站(龙桥镇龙桥大道津龙酒店),汽车服务;充电站;充电站,117.444496,31.145594,龙桥大道津龙大酒店内,安徽省,合肥市,庐江县
国家电网汽车充电站(安徽省合肥市庐江县龙桥镇有序交流充电站),汽车服务;充电站;充电站,117.44331,31.14296,裴桂路与龙矾路交口东北350米龙桥供电营业厅院外,安徽省,合肥市,庐江县
国家电网汽车充电站(安徽省合肥市庐江县罗河镇黄龙村停车场交流充电站),汽车服务;充电站;充电站,117.365783,30.985085,232省道与029乡道交叉口东460米(湖光里民宿旁),安徽省,合肥市,庐江县
广州蔚星汽车充电站(新中村部充电站),汽车服务;充电站;充电站,117.43278,31.064383,矾山镇中共矾山镇新中村委员会,安徽省,合肥市,庐江县
驴充充汽车充电站(永安车业),汽车服务;充电站;充电站,117.35803,31.066294,驴充充汽车充电站(杨院子)东北侧150米,安徽省,合肥市,庐江县
汽车充电站(庐江县泥河镇初级中学站),汽车服务;充电站;充电站,117.335818,31.084777,长江路42号,安徽省,合肥市,庐江县
中国石化汽车充电站(合黄充电站),汽车服务;充电站;充电站,117.371315,31.000788,罗河镇中国石化合黄加油站,安徽省,合肥市,庐江县
庐江东服务区汽车充电站,汽车服务;充电站;充电站,117.416252,31.334844,G4221沪武高速入口与庐江东服务区交叉口东北440米,安徽省,合肥市,庐江县
国家电网汽车充电站(安徽省合肥市庐江县独山旅游景区充电站),汽车服务;充电站;充电站,117.372648,31.271458,独山旅游景区管委会东侧280米,安徽省,合肥市,庐江县
庐江东服务区电动汽车充电站,汽车服务;充电站;充电站,117.417208,31.332557,G4221沪武高速入口与庐江东服务区交叉口东440米,安徽省,合肥市,庐江县
云快充汽车充电站(公牛庐江县莲花落友行),汽车服务;充电站;充电站,117.344392,31.286845,巢庐路冶父山莲花落友行青年部落,安徽省,合肥市,庐江县
国家电网汽车充电站(安徽省合肥市庐江县白湖中心有序交流充电站),汽车服务;充电站;充电站,117.39745,31.22128,白湖镇白湖街道白湖供电所院外,安徽省,合肥市,庐江县
国家电网汽车充电站(安徽省合肥市庐江县冶山中心有序交流充电站),汽车服务;充电站;充电站,117.33397,31.27005,冶山镇冶山人民政府西南侧冶山供电所院外,安徽省,合肥市,庐江县
启源充电站(巢庐路充电站),汽车服务;充电站;充电站,117.372214,31.305482,冶山镇巢庐路南,安徽省,合肥市,庐江县
中充服汽车充电站(中充服冶父山居小酒馆服务站),汽车服务;充电站;充电站,117.35267,31.30501,冶父山镇飞鹰石冶父山国家森林公园,安徽省,合肥市,庐江县
中国石化汽车充电站(中コ涞缯),汽车服务;充电站;充电站,117.7801,31.65889,105省道中国石化中ビ推合建站,安徽省,合肥市,巢湖市
国家电网汽车充电站(安徽省合肥市巢湖市炀镇凤凰村停车场交流充电站),汽车服务;充电站;充电站,117.677058,31.721017,炀镇凤凰村停车场,安徽省,合肥市,巢湖市
汽车充电站(中国石化中フ),汽车服务;充电站;充电站,117.780314,31.659345,中フ蚪华村,安徽省,合肥市,巢湖市
达克云汽车充电站(公牛中フ蚩斐湔)(内部专用),汽车服务;充电站;充电站,117.765816,31.66176,中フ蚓┗β酚胗宾大道交口西南140米中バ⊙Ф悦,安徽省,合肥市,巢湖市
国家电网汽车充电站(安徽省合肥市巢湖市中旱镇小姚村有序交流充电站),汽车服务;充电站;充电站,117.73462,31.66279,中旱镇小姚村,安徽省,合肥市,巢湖市
超翔汽车充电站(白山世纪城),汽车服务;充电站;充电站,117.377914,31.465696,白山世纪城,安徽省,合肥市,庐江县
皖小能汽车充电站(肥西县三河镇滨光村民委员会慢充),汽车服务;充电站;充电站,117.342064,31.5424,滨光村村民委员会人社服务窗口(滨光村党群服务中心)东北侧,安徽省,合肥市,肥西县
达克云汽车充电站(公牛槐林镇初级中学超充站),汽车服务;充电站;充电站,117.616974,31.418673,槐林镇石茨河西路与巢庐路交叉口向北150米,安徽省,合肥市,巢湖市
星星充电汽车充电站(星星充电-槐林沐集初级中学),汽车服务;充电站;充电站,117.540184,31.369894,槐林镇兴沐路沐集中心学校,安徽省,合肥市,巢湖市
国家电网汽车充电站(安徽省合肥市庐江县盛桥中心有序交流充电站),汽车服务;充电站;充电站,117.497758,31.393022,盛桥镇G346盛桥供电所院内,安徽省,合肥市,庐江县
国家电网汽车充电站(安徽省合肥市巢湖市槐林有序交流充电站),汽车服务;充电站;充电站,117.62109,31.42036,巢庐路供电所院外,安徽省,合肥市,巢湖市
特来电汽车充电站(安徽合康充电站),汽车服务;充电站;充电站,117.491906,31.353977,盛桥镇中国农业银行(盛桥支行),安徽省,合肥市,庐江县
蔚享天成汽车充电站(盛桥镇佳苑宾馆汽车桩),汽车服务;充电站;充电站,117.4957,31.393764,庐江盛桥镇庐江高申林车站西北方150米处,安徽省,合肥市,庐江县
汽车充电站谷隐渔歌,汽车服务;充电站;充电站,117.528564,31.41854,盛桥镇谷隐渔歌民宿,安徽省,合肥市,庐江县
达克云汽车充电站(公牛槐林镇沐集中心学校快充站),汽车服务;充电站;充电站,117.538261,31.369347,槐林镇明堂路与沐集路交叉口正东方向147米,安徽省,合肥市,巢湖市
云快充汽车充电站(巢湖惠峰村),汽车服务;充电站;充电站,117.603402,31.347554,X068惠峰村委员会旁停车场,安徽省,合肥市,巢湖市
特来电汽车充电站(巢湖黄麓车站充电站),汽车服务;充电站;充电站,117.585837,31.621809,黄麓镇中路黄麓镇初级中学,安徽省,合肥市,巢湖市
中国石化汽车充电站(岐阳充电站),汽车服务;充电站;充电站,117.65147,31.694975,炀镇中国石化歧阳加油站,安徽省,合肥市,巢湖市
达克云汽车充电站(公牛炀镇快充站),汽车服务;充电站;充电站,117.63494,31.69239,炀镇黄路407号炀镇中心学校对面,安徽省,合肥市,巢湖市
开迈斯汽车充电站(合肥市黄麓半岛商业交站),汽车服务;充电站;充电站,117.588507,31.614386,黄麓镇半岛大道与书香路交汇处半岛商业广场地下停车场负一层021-026车位,安徽省,合肥市,巢湖市
云快充汽车充电站(富煌电科黄麓富煌半岛假日酒店120kw直流快充站),汽车服务;充电站;充电站,117.583569,31.616735,黄麓镇三汊河路富煌半岛假日酒店南侧地上停车场,安徽省,合肥市,巢湖市
国家电网汽车充电站(安徽省合肥市巢湖市炀有序交流充电站),汽车服务;充电站;充电站,117.63759,31.68708,炀镇炀中心供电所院内,安徽省,合肥市,巢湖市
国家电网汽车充电站(安徽省合肥市肥东县桥头集电力便民服务点有序交流充电站),汽车服务;充电站;充电站,117.537925,31.729714,桥头集镇国光社区停车场,安徽省,合肥市,肥东县
驴充充汽车充电站(小二楼食府),汽车服务;充电站;充电站,117.534353,31.724287,026县道西侧,安徽省,合肥市,肥东县
汽车充电站(开迈斯充电站合肥市黄麓半岛商业交直流站),汽车服务;充电站;充电站,117.588213,31.614496,黄麓镇半岛大道与书香路交汇处半岛商业广场地下停车场负一层021-026车位,安徽省,合肥市,巢湖市
国家电网汽车充电站(安徽省合肥市肥东县长临河镇停车场充电站),汽车服务;充电站;充电站,117.462026,31.686375,长临河古镇景区环湖北路地面停车场,安徽省,合肥市,肥东县
国家电网汽车充电站(安徽省合肥市巢湖市中庙快充站),汽车服务;充电站;充电站,117.479831,31.596658,中庙供电所旁地面停车场,安徽省,合肥市,巢湖市
星星充电汽车充电站(安徽创新馆站),汽车服务;充电站;充电站,117.334561,31.71238,安徽创新馆地面停车场,安徽省,合肥市,包河区
开迈斯汽车充电站(合肥市长临河古镇站),汽车服务;充电站;充电站,117.46188,31.690853,长临河镇人民政府司法局后停车场,安徽省,合肥市,肥东县
国家电网汽车充电站(安徽省合肥市巢湖市中庙镇卫生院有序交流充电站),汽车服务;充电站;充电站,117.485175,31.597229,中庙街道卫生院停车场,安徽省,合肥市,巢湖市
招商建筑科技汽车充电站(安徽创新馆招小充汽车充电站),汽车服务;充电站;充电站,117.333234,31.71139,云谷路安徽创新馆(渡江纪念馆地铁站B口步行340米),安徽省,合肥市,包河区
皖小能汽车充电站(肥西县三河镇五合村党群服务中心慢充),汽车服务;充电站;充电站,117.33903,31.562836,五合村党群服务中心三河镇五合村(肥西县环巢湖大道西南侧),安徽省,合肥市,肥西县
星星充电汽车充电站(星星充电马集通泰),汽车服务;充电站;充电站,117.627517,31.874162,重工机械产业园合肥通泰建材有限公司院内,安徽省,合肥市,肥东县
特来电汽车充电站(肥东县石塘人民政府停车场充电站),汽车服务;充电站;充电站,117.633512,31.931321,石塘镇人民政府,安徽省,合肥市,肥东县
国家电网汽车充电站(安徽省合肥市肥东县安徽晶科能源有限公司停车场充电站),汽车服务;充电站;充电站,117.513913,31.759019,龙兴大道与乳泉路交叉口东北500米,安徽省,合肥市,肥东县
小桔充电汽车充电站(合肥市双杰电气肥东),汽车服务;充电站;充电站,117.507131,31.780863,龙兴大道18号,安徽省,合肥市,肥东县
云快充汽车充电站(安徽宇阳云智能),汽车服务;充电站;充电站,117.492578,31.786969,安徽昱阳新能源科技有限公司,安徽省,合肥市,肥东县
云快充汽车充电站(合来电四方复合肥家属区),汽车服务;充电站;充电站,117.572919,31.75327,桥头集合马路,安徽省,合肥市,肥东县
快电汽车充电站(安徽郝智新材料科技有限公司),汽车服务;充电站;充电站,117.50649,31.78344,撮镇镇联东U谷・肥东国际企业港,安徽省,合肥市,肥东县
蔚来能源目的地充电站(内部使用合肥理工学校),汽车服务;充电站;充电站,117.50471,31.865755,双桥村331省道与站南路交叉口东北,安徽省,合肥市,肥东县
广州蔚星汽车充电站(中科全速光储充体验站),汽车服务;充电站;专用充电站,117.497955,31.788345,撮镇镇天工科技园中科全速科技园,安徽省,合肥市,肥东县
广州蔚星汽车充电站(中科全速光储充体验站),汽车服务;充电站;专用充电站,117.498764,31.788216,合肥循环经济示范园漫泉路8号中科全速科技园,安徽省,合肥市,肥东县
全速汽车充电站(内部专用),汽车服务;充电站;专用充电站,117.49871,31.787713,天工科技园东侧,安徽省,合肥市,肥东县
易佳电汽车充电站(易佳电循环园充电站)(暂停营业),汽车服务;充电站;充电站,117.519875,31.759193,X036与乳泉路交叉路口往西约190米,安徽省,合肥市,肥东县
易佳电汽车充电站(易佳电肥东乾锐科技充电站)(暂停营业),汽车服务;充电站;充电站,117.52807,31.759386,乳泉路与石泉路交叉路口往东约180米,安徽省,合肥市,肥东县
驴充充汽车充电站(肥东县八斗镇大张社区),汽车服务;充电站;充电站,117.592417,32.136813,八斗镇大张社区居民委员会西北侧90米,安徽省,合肥市,肥东县
云快充汽车充电站(牛特快速充电桩中心),汽车服务;充电站;充电站,117.613688,31.97927,梁园镇上卞湾,安徽省,合肥市,肥东县
云快充汽车充电站(牛特快速充电桩中心),汽车服务;充电站;充电站,117.61459,31.982668,梁园镇上卞湾,安徽省,合肥市,肥东县
云快充汽车充电站(皋源泛能岭秀苑交流),汽车服务;充电站;充电站,117.588429,32.103644,岭秀苑小区,安徽省,合肥市,肥东县
国家电网汽车充电站(芜合高速巢湖服务区充电站合肥方向),汽车服务;充电站;充电站,117.805851,31.759253,芜合高速巢湖服务区合肥方向,安徽省,合肥市,巢湖市
易佳电汽车充电站(易佳电巢湖市柘皋镇充电站),汽车服务;充电站;充电站,117.74887,31.77673,柘皋镇政府大门口,安徽省,合肥市,巢湖市
理想汽车充电站(理想5C超充站芜合高速巢湖服务区合肥方向),汽车服务;充电站;充电站,117.80606,31.759703,巢湖服务区,安徽省,合肥市,巢湖市
巢湖服务区国家电网汽车充电站,汽车服务;充电站;充电站,117.806515,31.759191,巢湖服务区东南侧地面停车场,安徽省,合肥市,巢湖市
蔚来能源汽车充电站(合肥方向G5011芜合高速巢湖服务区),汽车服务;充电站;充电站,117.80647,31.759344,芜合高速公路东150米,安徽省,合肥市,巢湖市
理想汽车充电站(理想5C超充站芜合高速巢湖服务区芜湖方向),汽车服务;充电站;充电站,117.80289,31.75888,巢湖服务区,安徽省,合肥市,巢湖市
巢湖服务区国家电网电动汽车充电站,汽车服务;充电站;充电站,117.802351,31.759505,巢湖服务区西北侧地面停车场,安徽省,合肥市,巢湖市
星星充电汽车充电站(星星充电-庙岗镇政府大院停车场),汽车服务;充电站;充电站,117.681898,31.790898,庙岗镇012乡道庙岗镇人民政府,安徽省,合肥市,巢湖市
国家电网汽车充电站(芜合高速巢湖服务区充电站芜湖方向),汽车服务;充电站;充电站,117.803501,31.758624,芜合高速巢湖服务区芜湖方向,安徽省,合肥市,巢湖市
蔚来能源汽车充电站(芜湖方向G5011芜合高速巢湖服务区),汽车服务;充电站;充电站,117.80235,31.759504,西北侧地面停车场,安徽省,合肥市,巢湖市
达克云汽车充电站(公牛庙岗镇快充站),汽车服务;充电站;充电站,117.681885,31.791384,庙岗镇人民政府(星火路西),安徽省,合肥市,巢湖市
柘皋镇供电局充电站,汽车服务;充电站;充电站,117.761809,31.773175,东湾街10号供电局院子内,安徽省,合肥市,巢湖市
国家电网汽车充电站(安徽省合肥市巢湖市柘皋有序交流充电站),汽车服务;充电站;充电站,117.761997,31.773278,柘皋大转盘附近院内,安徽省,合肥市,巢湖市
理想汽车充电站(理想5C超充站芜合高速巢湖服务区芜湖方向),汽车服务;充电站;充电站,117.80289,31.75888,中国石化巢湖服务区南加油站西北侧190米,安徽省,合肥市,巢湖市
蔚来能源汽车充电站(合肥方向G5011芜合高速巢湖服务区),汽车服务;充电站;充电站,117.80647,31.759344,芜合高速公路东150米,安徽省,合肥市,巢湖市
易佳电汽车充电站(易佳电芜合高速巢湖服务区充电站芜湖方向),汽车服务;充电站;充电站,117.80346,31.758598,芜合高速巢湖服务区充电站(芜湖方向),安徽省,合肥市,巢湖市
星星充电汽车充电站(苏湾),汽车服务;充电站;充电站,117.823046,31.884612,苏湾镇002县道豪瑞宴会酒店,安徽省,合肥市,巢湖市
青岗集服务区汽车充电站,汽车服务;充电站;充电站,117.84538,31.920295,S09明合高速与青岗集服务区交叉口西南400米,安徽省,合肥市,巢湖市
汽车充电站(公牛苏湾镇充电站),汽车服务;充电站;充电站,117.819618,31.877954,苏湾镇党建公园停车场,安徽省,合肥市,巢湖市
青岗集服务区汽车充电站,汽车服务;充电站;充电站,117.847491,31.918013,明巢高速,安徽省,合肥市,巢湖市
国家电网汽车充电站(安徽省合肥市巢湖市苏湾有序交流充电站),汽车服务;充电站;充电站,117.818824,31.874496,苏湾镇苏湾中心供电所大院门右侧院外,安徽省,合肥市,巢湖市
达克云汽车充电站(公牛苏湾镇快充站),汽车服务;充电站;充电站,117.82025,31.877798,苏湾镇中心卫生院西50米,安徽省,合肥市,巢湖市
星星充电汽车充电站(栏杆集),汽车服务;充电站;充电站,117.821185,31.979257,巢湖市栏杆骨科医院,安徽省,合肥市,巢湖市
达克云汽车充电站(公牛栏杆集镇快充站),汽车服务;充电站;充电站,117.81812,31.979736,栏杆镇兰心阁民宿西北50米(S326北),安徽省,合肥市,巢湖市
中国石化汽车充电站(马湖充电站),汽车服务;充电站;充电站,117.822808,32.061155,马湖乡乾合社区大鲁组兴桥公交站旁,安徽省,合肥市,肥东县
星星充电汽车充电站(星星充电-栏杆),汽车服务;充电站;充电站,117.817495,31.980259,栏杆集镇326省道,安徽省,合肥市,巢湖市
国家电网汽车充电站(安徽省合肥市巢湖市栏杆集镇人民政府有序交流充电站),汽车服务;充电站;充电站,117.823385,31.976405,栏杆集镇停车场,安徽省,合肥市,巢湖市
特来电汽车充电站(鎏金新能源充电站),汽车服务;充电站;充电站,117.818082,31.979683,栏杆集镇326省道,安徽省,合肥市,巢湖市
沪蓉高速文集服务区充电站(陕西方向),汽车服务;充电站;充电站,117.719346,31.959594,沪蓉高速文集服务区(陕西方向),安徽省,合肥市,肥东县
理想汽车充电站(理想5C超充站沪陕高速文集服务区西安方向),汽车服务;充电站;充电站,117.71925,31.959621,文集服务区,安徽省,合肥市,肥东县
国家电网汽车充电站(沪蓉高速文集服务区充电站上海方向),汽车服务;充电站;充电站,117.718288,31.957684,326省道与岘山路交叉口东北360米地面停车场,安徽省,合肥市,肥东县
理想汽车充电站(理想5C超充站沪陕高速文集服务区上海方向),汽车服务;充电站;充电站,117.718056,31.957712,文集服务区,安徽省,合肥市,肥东县
中国石化汽车充电站(巢北充电站),汽车服务;充电站;充电站,117.803,31.970997,杆集镇中国石化巢北加油站,安徽省,合肥市,巢湖市
云快充汽车充电站(云快充汽车充电站杨塘站),汽车服务;充电站;充电站,117.78013,32.106697,古城镇杨塘社区,安徽省,合肥市,肥东县
蔚来能源汽车充电站(上海方向G40沪陕高速文集服务区),汽车服务;充电站;充电站,117.71647,31.957634,326省道与岘山路交叉口东北240米,安徽省,合肥市,肥东县
蔚来能源汽车充电站(西安方向G40沪陕高速文集服务区),汽车服务;充电站;充电站,117.71941,31.96048,文集服务区北(G40北),安徽省,合肥市,肥东县
能效邻里共享汽车充电站(周集佳佳惠酒店充电站),汽车服务;充电站;充电站,117.67707,31.97318,包公镇板桥社区周集街道,安徽省,合肥市,肥东县
云快充汽车充电站(云快充汽车充电站古城镇黄山站),汽车服务;充电站;充电站,117.74196,32.08543,古城镇黄山社区,安徽省,合肥市,肥东县
国家电网汽车充电站(安徽省合肥市肥东县古城有序交流充电站),汽车服务;充电站;充电站,117.78479,32.110902,杨塘社区杨塘变电所北侧供电所外,安徽省,合肥市,肥东县
汽车充电站(公牛陈集镇小林站),汽车服务;充电站;充电站,117.737284,32.205797,[],安徽省,合肥市,肥东县
国家电网汽车充电站(安徽省合肥市肥东县陈集有序交流充电站),汽车服务;充电站;充电站,117.720222,32.216065,陈集镇肖圩社区供电所外,安徽省,合肥市,肥东县
云快充汽车充电站(白龙充电站),汽车服务;充电站;充电站,117.426676,32.145985,农商银行(白龙支行)西北侧约80米,安徽省,合肥市,肥东县
皖小能汽车充电站(造甲乡造甲新村),汽车服务;充电站;充电站,117.344309,32.24341,造甲乡227省道造甲新村,安徽省,合肥市,长丰县
驴充充汽车充电站(红绿灯路口东100米),汽车服务;充电站;充电站,117.4586,32.200554,X022费集乡,安徽省,合肥市,肥东县
云快充汽车充电站(云快充汽车充电站青龙甸),汽车服务;充电站;充电站,117.377655,32.18466,白龙镇青龙甸生态园,安徽省,合肥市,肥东县
汽车充电站(快充),汽车服务;充电站;充电站,117.459601,32.200494,白龙镇030乡道与101省道交叉口东80米,安徽省,合肥市,肥东县
国家电网汽车充电站(安徽省合肥市长丰县隆兴服务站有序交流充电站),汽车服务;充电站;充电站,117.38015,32.33567,杜集乡隆兴街道院外,安徽省,合肥市,长丰县
皖小能汽车充电站(下塘镇朝晖社区),汽车服务;充电站;充电站,117.36001,32.1639,下塘镇长丰县食品安全工作站朝晖社区居委会,安徽省,合肥市,长丰县
皖小能汽车充电站(造甲乡宗旱村),汽车服务;充电站;充电站,117.334816,32.296932,造甲乡宗旱村村民委员会,安徽省,合肥市,长丰县
皖小能汽车充电站(造甲乡联合村),汽车服务;充电站;充电站,117.36225,32.27611,联合村村委会,安徽省,合肥市,长丰县
皖小能汽车充电站(杜集镇庙后村),汽车服务;充电站;充电站,117.3901,32.314884,杜集镇庙后村村委会庙后村党群服务中心,安徽省,合肥市,长丰县
皖小能汽车充电站(造甲乡凤楼社区),汽车服务;充电站;充电站,117.33489,32.21388,造甲乡凤楼社区居委会,安徽省,合肥市,长丰县
皖小能汽车充电站(造甲乡马塘村),汽车服务;充电站;充电站,117.389015,32.269447,马塘村委会造甲乡马塘村东北组,安徽省,合肥市,长丰县
皖小能汽车充电站(杜集镇高祠村),汽车服务;充电站;充电站,117.39493,32.29435,杜集镇高祠村村委会,安徽省,合肥市,长丰县
皖小能汽车充电站(杜集镇大李村),汽车服务;充电站;充电站,117.3718,32.31553,杜集镇大李村村委会,安徽省,合肥市,长丰县
皖小能汽车充电站(杜集镇隆兴社区),汽车服务;充电站;充电站,117.38598,32.332653,杜集镇隆兴社区为民服务中心隆兴社居委,安徽省,合肥市,长丰县
汽车充电站(吉瓦充电响导站),汽车服务;充电站;充电站,117.613891,32.213653,响导大街x028号,安徽省,合肥市,肥东县
国家电网汽车充电站(安徽省合肥市肥东县八斗有序交流充电站),汽车服务;充电站;充电站,117.60534,32.148083,八斗镇八斗社区供电所外,安徽省,合肥市,肥东县
驴充充汽车充电站(刘兴村),汽车服务;充电站;充电站,117.398751,32.361364,S322刘兴村地面停车场,安徽省,合肥市,长丰县
皖小能汽车充电站(杜集镇邱集社区),汽车服务;充电站;充电站,117.43287,32.366222,杜集镇邱集社区监督委员会邱集社区居委会,安徽省,合肥市,长丰县
汽车充电站( 咔咔电姆快充充电站),汽车服务;充电站;充电站,117.353211,32.362763,322省道,安徽省,合肥市,长丰县
国家电网汽车充电站(安徽省合肥市长丰县杜集中心有序交流充电站),汽车服务;充电站;充电站,117.353843,32.363079,长丰县公安局杜集派出所院内,安徽省,合肥市,长丰县
皖小能汽车充电站(杜集镇东黄村),汽车服务;充电站;充电站,117.36502,32.36225,杜集镇东黄村村委会,安徽省,合肥市,长丰县
皖小能汽车充电站(杜集镇义合村),汽车服务;充电站;充电站,117.41145,32.33882,杜集镇义合村村委会,安徽省,合肥市,长丰县
皖小能汽车充电站(五七干校),汽车服务;充电站;充电站,117.337326,32.392757,杜集镇胜利村五七干校,安徽省,合肥市,长丰县
皖小能汽车充电站(杜集镇迎新村安置点小区),汽车服务;充电站;充电站,117.36644,32.43869,杜集镇迎新村安置点小区停车场,安徽省,合肥市,长丰县
皖小能汽车充电站(杜集镇刘兴村),汽车服务;充电站;充电站,117.39868,32.364773,杜集镇刘兴村卫生室长丰县杜集镇刘兴村村民委员会,安徽省,合肥市,长丰县
皖小能汽车充电站(杜集镇新星村),汽车服务;充电站;充电站,117.33277,32.41895,杜集镇新星村村民委员会,安徽省,合肥市,长丰县
皖小能汽车充电站(杜集镇陈岗村),汽车服务;充电站;充电站,117.354904,32.42455,杜集镇陈岗村退役军人服务站杜集镇陈岗村,安徽省,合肥市,长丰县
皖小能汽车充电站(杜集镇沛兴村),汽车服务;充电站;充电站,117.36805,32.421726,杜集镇白水塘刘,安徽省,合肥市,长丰县
极电智充汽车充电站(庐江县人民医院罗河分院充电站),汽车服务;充电站;充电站,117.31017,31.019579,罗河派出所西侧庐江县人民医院罗河分院,安徽省,合肥市,庐江县
特来电汽车充电站(泥河镇快充站),汽车服务;充电站;充电站,117.322706,31.084434,"泥河镇,长江中路顺丰速运门口",安徽省,合肥市,庐江县
沙溪服务区国家电网电动汽车充电站,汽车服务;充电站;充电站,117.254622,31.14705,京台高速沙溪服务区北京方向,安徽省,合肥市,庐江县
国家电网汽车充电站(沙溪服务区店),汽车服务;充电站;充电站,117.25466,31.147007,京台高速沙溪服务区北京方向,安徽省,合肥市,庐江县
国家电网汽车充电站(安徽省合肥市庐江县泥河中心有序交流充电站),汽车服务;充电站;充电站,117.316893,31.089173,泥河镇泥河街道泥河供电所院内,安徽省,合肥市,庐江县
汽车充电站(共享直流快充站),汽车服务;充电站;充电站,117.320288,31.085251,黄河路盲人按摩隔壁,安徽省,合肥市,庐江县
极电智充汽车充电站(庐江县泥河金铜新村小区),汽车服务;充电站;充电站,117.31078,31.08544,合铜路与长江路交叉路口往北约160米金铜新村,安徽省,合肥市,庐江县
极电智充汽车充电站(庐江县泥河医院),汽车服务;充电站;充电站,117.320465,31.083418,长江路与黄山路交叉路口往南约260米泥河中心卫生院,安徽省,合肥市,庐江县
盲人按摩汽车充电站,汽车服务;充电站;充电站,117.320301,31.085274,长江路42号,安徽省,合肥市,庐江县
汽车充电站(庐江县泥河镇育才家园站),汽车服务;充电站;充电站,117.324884,31.087744,长江路42号,安徽省,合肥市,庐江县
中国石化汽车充电站(合铜路充电站),汽车服务;充电站;充电站,117.307465,31.098198,泥河镇中国石化合铜路加油站,安徽省,合肥市,庐江县
中充服汽车充电站(中充服乐桥农贸综合市场服务站),汽车服务;充电站;充电站,117.17837,31.141474,乐桥镇新乐水体公园,安徽省,合肥市,庐江县
云快充汽车充电站(庐江县乐桥镇老院社区),汽车服务;充电站;充电站,117.184323,31.136592,乐桥镇运河家园,安徽省,合肥市,庐江县
中充服汽车充电站(中充服乐桥乡村振兴产业园服务站),汽车服务;充电站;充电站,117.18611,31.146454,乐桥镇乡村振兴产业园,安徽省,合肥市,庐江县
石小姐汽车充电桩,汽车服务;充电站;充电站,117.18242,31.087786,232省道,安徽省,合肥市,庐江县
岱鳌山景区西门停车场汽车充电站,汽车服务;充电站;充电站,117.185189,31.097584,乐桥镇大化小学附近,安徽省,合肥市,庐江县
超翔汽车充电站(国轩三期),汽车服务;充电站;充电站,117.23526,31.231239,庐城镇王家山咀,安徽省,合肥市,庐江县
易佳电汽车充电站(易佳电源元科技充电站),汽车服务;充电站;充电站,117.23122,31.223013,合肥源元科技股份有限公司东门,安徽省,合肥市,庐江县
昆仑网电汽车充电站(中石油合肥庐江县陈埠充电站),汽车服务;充电站;充电站,117.24128,31.2082,南外环路辅路与罗河路交叉口东北100米,安徽省,合肥市,庐江县
超翔汽车充电站(岳庙安置房),汽车服务;充电站;充电站,117.196728,31.247965,万山镇岳庙村东北侧90米,安徽省,合肥市,庐江县
皖小能汽车充电站(博大小区停车场),汽车服务;充电站;充电站,117.2271,31.247437,乐桥路合肥博大精密科技有限公司内,安徽省,合肥市,庐江县
徐华东7kw共享汽车充电站,汽车服务;充电站;充电站,117.178267,31.223178,双墩村8号,安徽省,合肥市,庐江县
易佳电汽车充电站(易佳电洋河路三号充电站),汽车服务;充电站;充电站,117.23517,31.231005,城西大道111号,安徽省,合肥市,庐江县
中国石化汽车充电站(外环南路充电站),汽车服务;充电站;充电站,117.30152,31.223581,岗湾街道中国石化外环南路加油加气站,安徽省,合肥市,庐江县
中国石化汽车充电站(文明南路充电站),汽车服务;充电站;充电站,117.29054,31.238459,岗湾街道文明南路与县河梗交口东南侧,安徽省,合肥市,庐江县
特来电汽车充电站(庐江中心城超充站),汽车服务;充电站;充电站,117.283368,31.243265,潜川路与越城路交叉口东北角正觉寺对面地面停车场,安徽省,合肥市,庐江县
星星充电汽车充电站(庐庆超级快充),汽车服务;充电站;充电站,117.274526,31.220945,移湖街道南环路中港石化加油站地面停车场(庐庆站),安徽省,合肥市,庐江县
庐江县城东公园充电站,汽车服务;充电站;充电站,117.317024,31.246331,城东大道与内环路交口东侧城东公园内(东南角)地面停车场,安徽省,合肥市,庐江县
特来电汽车充电站(庐江体育公园超充站),汽车服务;充电站;充电站,117.300325,31.236114,潜川路体育公园停车场内,安徽省,合肥市,庐江县
云快充汽车充电站(庐江县方圆荟超充站),汽车服务;充电站;充电站,117.291907,31.242796,城中中路112号,安徽省,合肥市,庐江县
特来电汽车充电站(庐江华天产业园超充站),汽车服务;充电站;充电站,117.251726,31.247638,移湖街道华天・城市产业园,安徽省,合肥市,庐江县
小桔充电汽车充电站(亿来电庐江黄庄二期),汽车服务;充电站;充电站,117.269169,31.246694,岗湾街道黄庄二期负一层车位A520A521,安徽省,合肥市,庐江县
国家电网汽车充电站(京台高速沙溪服务区充电站台北方向2),汽车服务;充电站;充电站,117.251281,31.149198,京台高速沙溪服务区充电站(台北方向),安徽省,合肥市,庐江县
超翔汽车充电站(海纳国际),汽车服务;充电站;充电站,117.30241,31.23684,海纳国际后门口,安徽省,合肥市,庐江县
小桔充电汽车充电站(亿来电庐江附城新村),汽车服务;充电站;充电站,117.29693,31.231105,岗湾街道邓湖南路附城新村7号楼地下室,安徽省,合肥市,庐江县
汽车充电站庐江县越城中路阳光花园小飞象共享,汽车服务;充电站;充电站,117.28442,31.246069,越城中路,安徽省,合肥市,庐江县
汽车充电站(世纪花都小飞象共享),汽车服务;充电站;充电站,117.30726,31.241068,内环东路201号,安徽省,合肥市,庐江县
皖小能汽车充电站(水西门),汽车服务;充电站;充电站,117.278175,31.24275,黄山南路水西门特色文化旅游街区负1层停车场F区,安徽省,合肥市,庐江县
千寻灏美酒店超充站,汽车服务;充电站;充电站,117.274667,31.268951,庐城镇内环北路432号灏美宴会酒店后地面停车场,安徽省,合肥市,庐江县
国家电网汽车充电站(安徽省合肥市庐江县松棵路充电站),汽车服务;充电站;充电站,117.287411,31.266814,松棵路与方塔路交界处向北50米,安徽省,合肥市,庐江县
中国石化汽车充电站(惠民路充电站),汽车服务;充电站;充电站,117.304377,31.252268,庐巢路240号,安徽省,合肥市,庐江县
星星充电汽车充电站(水木景苑),汽车服务;充电站;充电站,117.283733,31.248932,文昌路汽车修理厂内地面停车场,安徽省,合肥市,庐江县
特来电汽车充电站(庐江鸿福液冷超充站),汽车服务;充电站;充电站,117.276895,31.251149,岗湾街道文昌路199号鸿福大酒店,安徽省,合肥市,庐江县
小桔充电汽车充电站(超翔快充站庐江福瑞临大酒店),汽车服务;充电站;充电站,117.28901,31.261375,庐城镇臻味简餐福瑞临大酒店地面停车场,安徽省,合肥市,庐江县
蔚来换电站(庐江城东水体公园),汽车服务;充电站;充电站,117.316656,31.249995,城东大道与冶山路交口向西200米(庐江融媒体中心斜对面),安徽省,合肥市,庐江县
伊充充电站,汽车服务;充电站;充电站,117.278301,31.267582,郭河路与方塔路交叉口西南260米,安徽省,合肥市,庐江县
超翔汽车充电站(越城花园),汽车服务;充电站;充电站,117.28944,31.259747,越城花园26号楼对面,安徽省,合肥市,庐江县
超翔汽车充电站(众发名城8号楼),汽车服务;充电站;充电站,117.27379,31.251097,众发名城,安徽省,合肥市,庐江县
超翔汽车充电站(9号楼汽车桩),汽车服务;充电站;充电站,117.31746,31.25573,朱墩三期9号楼,安徽省,合肥市,庐江县
汉庭酒店汽车充电桩(庐江周瑜大道店),汽车服务;充电站;充电站,117.291798,31.248849,周瑜大道303号,安徽省,合肥市,庐江县
特来电汽车充电站(许山里民宿1号充电站),汽车服务;充电站;充电站,117.329389,31.291949,冶父山镇庐江许山里民宿,安徽省,合肥市,庐江县
咔咔电姆鸿福汽车充电站,汽车服务;充电站;充电站,117.275374,31.251252,文昌西路199号,安徽省,合肥市,庐江县
汽车充电站(余月湖畔A区),汽车服务;充电站;充电站,117.313215,31.270693,冶父山镇余月湖畔5栋南侧地面停车位,安徽省,合肥市,庐江县
特来电汽车充电站(许山里民宿2号充电站),汽车服务;充电站;充电站,117.329389,31.291949,冶父山镇庐江许山里民宿,安徽省,合肥市,庐江县
微来充文昌路盛世华庭地上停车场汽车充电站,汽车服务;充电站;充电站,117.280397,31.24969,文昌路与黄山路交叉口西100米,安徽省,合肥市,庐江县
云快充汽车充电站(维也纳国际酒店庐江高铁站),汽车服务;充电站;充电站,117.267846,31.249596,徽州大道与五里南路交口海鸿财富广场A座地下一层,安徽省,合肥市,庐江县
皖小能汽车充电站(移湖西路停车场),汽车服务;充电站;充电站,117.22512,31.249975,移湖西路庐江皖能天然气公司附近8米,安徽省,合肥市,庐江县
云快充汽车充电站(合肥市庐江县万山镇长岗街道长岗精选酒店),汽车服务;充电站;充电站,117.210693,31.302326,万山镇长岗街道长岗中学对面长岗精选酒店,安徽省,合肥市,庐江县
国家电网汽车充电站(安徽省合肥市庐江县万山中心有序交流充电站),汽车服务;充电站;充电站,117.183464,31.336321,万山镇军二路万山供电所院内,安徽省,合肥市,庐江县
国家电网汽车充电站(合安高速陈埠服务区充电站安庆方向),汽车服务;充电站;充电站,117.160025,31.220714,合安高速公路陈埠服务区(安庆方向),安徽省,合肥市,庐江县
国家电网汽车充电站(合安高速陈埠服务区充电站合肥方向2),汽车服务;充电站;充电站,117.160298,31.218452,合安高速陈埠服务区充电站(合肥方向),安徽省,合肥市,庐江县
国家电网汽车充电站(合安高速陈埠服务区充电站合肥方向2),汽车服务;充电站;充电站,117.160298,31.218452,G4212合安高速与陈埠服务区交叉口东北480米,安徽省,合肥市,庐江县
易佳电汽车充电站(易佳电合安高速陈埠服务区充电站安庆方向),汽车服务;充电站;充电站,117.16036,31.220354,合安高速陈埠服务区充电站(安庆方向),安徽省,合肥市,庐江县
易佳电汽车充电站(易佳电合安高速陈埠服务区充电站合肥方向),汽车服务;充电站;充电站,117.16029,31.218452,合安高速公路陈埠服务区内,安徽省,合肥市,庐江县
汽车充电站(浮祥果园共享站),汽车服务;充电站;充电站,117.148102,31.176334,085县道,安徽省,合肥市,庐江县
国家电网汽车充电站(安徽省合肥市庐江县柯坦镇牛王寨景区停车场充电站),汽车服务;充电站;充电站,117.09883,31.244698,柯坦镇虎洞社区党群服务中心北侧,安徽省,合肥市,庐江县
国家电网汽车充电站(合安高速陈埠服务区充电站合肥方向2),汽车服务;充电站;充电站,117.160298,31.218452,合安高速陈埠服务区合肥方向,安徽省,合肥市,庐江县
国家电网汽车充电站(安徽省合肥市庐江县汤池公交停车场充电站),汽车服务;充电站;充电站,117.095068,31.335053,地面停车场,安徽省,合肥市,庐江县
易佳电汽车充电站(易佳电汤池二号充电站),汽车服务;充电站;充电站,117.093778,31.322571,国轩大酒店,安徽省,合肥市,庐江县
特来电汽车充电站(宋氏祠堂充电站),汽车服务;充电站;充电站,117.134492,31.291869,万山镇宋氏宗祠,安徽省,合肥市,庐江县
昆仑网电汽车充电站(中石油合肥庐江县汤池充电站),汽车服务;充电站;充电站,117.11101,31.333675,汤池镇二军路汤池加油站,安徽省,合肥市,庐江县
国家电网汽车充电站(安徽省合肥市庐江县云里安凹・云溪山舍充电站),汽车服务;充电站;充电站,117.132078,31.287388,长冲村安凹组,安徽省,合肥市,庐江县
汽车充电站(清沐民宿),汽车服务;充电站;充电站,117.094001,31.319801,和平路18号,安徽省,合肥市,庐江县
国家电网汽车充电站(安徽省合肥市庐江县汤池镇金汤湖公园停车场充电站),汽车服务;充电站;充电站,117.092212,31.299182,汤池镇庐江云汤小院民宿对面,安徽省,合肥市,庐江县
国家电网汽车充电站(安徽省合肥市庐江县金孔雀温泉养生中心一号泉交流充电站),汽车服务;充电站;充电站,117.093003,31.32778,一泉漂浮温泉酒店停车场,安徽省,合肥市,庐江县
国家电网汽车充电站(安徽省合肥市庐江县汤池中心有序交流充电站),汽车服务;充电站;充电站,117.092838,31.330527,汤池镇银河路西南侧约40米汤池供电所院外,安徽省,合肥市,庐江县
国家电网汽车充电站(安徽省合肥市庐江县汤池镇少间王圩里民宿停车场充电站),汽车服务;充电站;充电站,117.102277,31.28845,汤池镇百花村文创王圩少间王圩里民宿,安徽省,合肥市,庐江县
中充服汽车充电站(中充服希岸酒店服务站),汽车服务;充电站;充电站,117.09607,31.336695,汤池镇金汤商务宾馆金汤别苑,安徽省,合肥市,庐江县
云快充汽车充电站(合肥市庐江县汤池镇镇政府停车场),汽车服务;充电站;充电站,117.101906,31.322798,汤池镇镇府大道,安徽省,合肥市,庐江县
云快充汽车充电站(安徽凌家院子农庄),汽车服务;充电站;充电站,117.127523,31.340912,汤池镇宋院庐江县二军公路,安徽省,合肥市,庐江县
国家电网汽车充电站(安徽省合肥市庐江县三冲游客服务中心有序交流充电站),汽车服务;充电站;充电站,117.061118,31.262687,汤池镇三冲游客服务中心广场,安徽省,合肥市,庐江县
易佳电汽车充电站(易佳电白云禅寺充电站),汽车服务;充电站;充电站,117.0488,31.2891,汤池镇果树村白云禅寺,安徽省,合肥市,庐江县
超翔汽车充电站(庐江县中医院医疗集团金牛分院充电站),汽车服务;充电站;充电站,117.22691,31.388311,立人大道,安徽省,合肥市,庐江县
易佳电汽车充电站(易佳电庐江县金牛镇充电站),汽车服务;充电站;充电站,117.20546,31.395424,金牛镇古城社区党群服务中心门前停车场,安徽省,合肥市,庐江县
电动汽车家用充电桩(慢充),汽车服务;充电站;充电站,117.249459,31.408188,石头镇望城村大袁老,安徽省,合肥市,庐江县
汽车充电站(中化石油充电站),汽车服务;充电站;充电站,117.272154,31.414846,合铜路与金石路交叉口,安徽省,合肥市,庐江县
中充服汽车充电站(中充服新渡社区服务站),汽车服务;充电站;充电站,117.27604,31.457582,同大镇新渡社区居委会,安徽省,合肥市,庐江县
特来电汽车充电站(同大镇亮亮充电站),汽车服务;充电站;充电站,117.269436,31.502084,同大镇同大派出所,安徽省,合肥市,庐江县
国家电网汽车充电站(安徽省合肥市庐江县同大中心有序交流充电站),汽车服务;充电站;充电站,117.26802,31.49677,同大镇韦桥大道同苍肺鞅辈嗤大供电所院外,安徽省,合肥市,庐江县
皖小能汽车充电站(肥西县三河镇联合村党群服务中心慢充),汽车服务;充电站;充电站,117.263985,31.534649,人社就业和社会保障服务窗口(联合村党群服务中心)三河镇联合村,安徽省,合肥市,肥西县
汽车充电站(湖光村),汽车服务;充电站;充电站,117.303915,31.534457,048县道北侧湖光村东区进大门20米11栋旁、西区30栋旁地面停车位,安徽省,合肥市,肥西县
汽车充电站(滨湖新村),汽车服务;充电站;充电站,117.319568,31.540464,048县道南150米滨湖新村小区大门进去右手边50米地面停车位,安徽省,合肥市,肥西县
皖小能汽车充电站(肥西县三河镇滨湖社区居委会慢充),汽车服务;充电站;充电站,117.32166,31.540201,三河镇048县道,安徽省,合肥市,肥西县
皖小能汽车充电站(肥西县三河镇永和村村民委员会慢充),汽车服务;充电站;充电站,117.27697,31.544909,三河镇永和村村民委员会三河镇永和村,安徽省,合肥市,肥西县
皖小能汽车充电站(肥西县三河镇临丰村村民委员会慢充),汽车服务;充电站;充电站,117.290276,31.54497,临丰村村委会三河镇,安徽省,合肥市,肥西县
国家电网汽车充电站(安徽省合肥市肥西县三河镇上河城西街社区充电站),汽车服务;充电站;充电站,117.24082,31.513166,三河镇西街社区(肥西县立人路西南侧),安徽省,合肥市,肥西县
汽车充电站(合肥充电站),汽车服务;充电站;充电站,117.245382,31.514946,三河古镇游客中心停车场内,安徽省,合肥市,肥西县
云快充汽车充电站(郁盛科技三河充电站),汽车服务;充电站;充电站,117.261765,31.560391,三河镇茶棚社区文化站,安徽省,合肥市,肥西县
皖小能汽车充电站(肥西县三河镇茶棚社区居民委员会慢充),汽车服务;充电站;充电站,117.262146,31.559254,茶棚社区居委会三河镇048县道,安徽省,合肥市,肥西县
皖小能汽车充电站(肥西县三河镇木兰社区三河国家湿地公园科普馆停车场慢充),汽车服务;充电站;充电站,117.2996,31.579203,国家湿地公园科普馆三河镇木兰社区总支委员会西侧,安徽省,合肥市,肥西县
皖小能汽车充电站(肥西县严店镇三联村村委会慢充),汽车服务;充电站;充电站,117.26453,31.63056,三联村村委会严店乡三联村,安徽省,合肥市,肥西县
皖小能汽车充电站(肥西县三河镇太华村村委会慢充),汽车服务;充电站;充电站,117.30108,31.566658,太华村村委会三河镇,安徽省,合肥市,肥西县
皖小能汽车充电站(肥西县三河镇西湖村民委员会慢充),汽车服务;充电站;充电站,117.328285,31.577536,三河镇西湖村村民委员会环巢湖大道,安徽省,合肥市,肥西县
皖小能汽车充电站(肥西县三河镇建设社区慢充),汽车服务;充电站;充电站,117.26225,31.578844,人社服务窗口(三河镇建设社区为民服务站)三河镇建设社区,安徽省,合肥市,肥西县
皖小能汽车充电站(肥西县严店镇罗祝社区委员会慢充),汽车服务;充电站;充电站,117.27104,31.617928,严店镇罗祝社区委员会,安徽省,合肥市,肥西县
汽车充电站(中国石化七十埠加油站),汽车服务;充电站;充电站,117.045216,31.614001,花岗镇七十埠社区,安徽省,合肥市,肥西县
蔚景云汽车充电站(世动云充合肥市肥西县花岗镇充电站),汽车服务;充电站;充电站,117.01333,31.56466,花岗镇206国道,安徽省,合肥市,肥西县
皖小能汽车充电站(肥西县花岗镇李祠社区党务服务中心慢充),汽车服务;充电站;充电站,117.04942,31.642633,李祠村,安徽省,合肥市,肥西县
皖小能汽车充电站(肥西县花岗镇陶店村村民委员会慢充),汽车服务;充电站;充电站,117.03081,31.591595,花岗镇陶店村村民委员会,安徽省,合肥市,肥西县
皖小能汽车充电站(肥西县花岗镇粉坊村民委员会慢充),汽车服务;充电站;充电站,117.06335,31.604626,粉坊村村委会,安徽省,合肥市,肥西县
皖小能汽车充电站(肥西县丰乐镇路塘村居委会慢充),汽车服务;充电站;充电站,117.07809,31.57412,路塘村村民委员会,安徽省,合肥市,肥西县
皖小能汽车充电站(肥西县花岗镇张店社区村民委员会慢充),汽车服务;充电站;充电站,117.02621,31.632734,花岗镇张店社区居委会花岗镇张店社区,安徽省,合肥市,肥西县
皖小能汽车充电站(肥西县花岗镇河丰社区居委会慢充),汽车服务;充电站;充电站,117.039,31.550856,河丰社区村民委员会人社民政窗口(花岗镇河丰社区)南侧,安徽省,合肥市,肥西县
皖小能汽车充电站(肥西县丰乐镇安河村居委会慢充),汽车服务;充电站;充电站,117.0809,31.555721,丰乐镇安河村委会丰乐镇,安徽省,合肥市,肥西县
皖小能汽车充电站(肥西县丰乐镇赵桥村居委会慢充),汽车服务;充电站;充电站,117.05786,31.577843,赵桥村村委会赵桥村,安徽省,合肥市,肥西县
皖小能汽车充电站(肥西县花岗镇杨湾村党群服务中心慢充),汽车服务;充电站;充电站,117.0888,31.606213,杨湾村党群服务中心花岗镇杨湾村附近,安徽省,合肥市,肥西县
皖小能汽车充电站(肥西县丰乐镇方桥村居委会慢充),汽车服务;充电站;充电站,117.14333,31.595087,方桥村村委会方桥村,安徽省,合肥市,肥西县
皖小能汽车充电站(肥西县丰乐镇从姚社区居委会慢充),汽车服务;充电站;充电站,117.108406,31.549984,从姚社区居委会丰乐镇,安徽省,合肥市,肥西县
皖小能汽车充电站(肥西县丰乐镇新丰村居委会慢充),汽车服务;充电站;充电站,117.1392,31.571808,丰乐镇新丰村村民委员会丰乐镇,安徽省,合肥市,肥西县
皖小能汽车充电站(肥西县丰乐镇桥东村居委会慢充),汽车服务;充电站;充电站,117.126915,31.572838,桥东村村委会丰乐镇,安徽省,合肥市,肥西县
皖小能汽车充电站(肥西县丰乐镇新华村居委会慢充),汽车服务;充电站;充电站,117.16106,31.570328,丰乐镇新华村村民委员会丰乐镇,安徽省,合肥市,肥西县
皖小能汽车充电站(肥西县丰乐镇安淮村居委会慢充),汽车服务;充电站;充电站,117.1315,31.608885,安淮村村委会吴塘路与047县道交叉口东60米,安徽省,合肥市,肥西县
皖小能汽车充电站(肥西县丰乐镇桥中村居委会慢充),汽车服务;充电站;充电站,117.10787,31.567335,丰乐镇桥中村村民委员会,安徽省,合肥市,肥西县
国家电网汽车充电站(安徽省合肥市肥西县紫蓬山商业街快充站),汽车服务;充电站;充电站,117.021269,31.7408,森林大道3号地面停车场,安徽省,合肥市,肥西县
国家电网肥西县山口村停车场电动汽车充电站,汽车服务;充电站;充电站,117.015644,31.69246,紫蓬山农山路地面停车场,安徽省,合肥市,肥西县
易佳电汽车充电站(易佳电肥西花岗镇科达能通充电站),汽车服务;充电站;充电站,117.08523,31.645288,能通新能源科技有限公司(智能制造基地),安徽省,合肥市,肥西县
合肥充电紫蓬山充电站,汽车服务;充电站;充电站,117.019236,31.727949,紫蓬山森林公园停车场西南角,安徽省,合肥市,肥西县
国家电网汽车充电站(安徽省合肥市肥西县吴口村停车场充电站),汽车服务;充电站;充电站,117.015084,31.692159,紫蓬山农山路,安徽省,合肥市,肥西县
皖小能汽车充电站(肥西县花岗镇叶岗村许下楼中心村慢充),汽车服务;充电站;充电站,117.03212,31.669048,花岗镇许下楼,安徽省,合肥市,肥西县
汽车充电站(紫蓬小区B区),汽车服务;充电站;充电站,117.024468,31.734503,紫蓬镇紫蓬小区19栋西侧停车位,安徽省,合肥市,肥西县
皖小能汽车充电站(肥西县花岗镇正新村村民委员会慢充),汽车服务;充电站;充电站,117.07977,31.64931,正新村村民委员会金寨南路,安徽省,合肥市,肥西县
汽车充电站(和美家园B区),汽车服务;充电站;充电站,117.027184,31.731609,紫蓬小区东南侧420米,安徽省,合肥市,肥西县
汽车充电站(紫蓬小区A区),汽车服务;充电站;充电站,117.023427,31.73593,紫蓬镇安徽外国语学院实验实训中心紫蓬小区28栋南侧停车位,安徽省,合肥市,肥西县
皖小能汽车充电站(肥西县花岗镇胜利村村民委员会慢充),汽车服务;充电站;充电站,117.06342,31.689634,胜利村村民委员会人社服务窗口(花岗镇胜利村民委会)东侧,安徽省,合肥市,肥西县
汽车充电站(瓦屋台家园B区),汽车服务;充电站;充电站,117.027645,31.733913,环山路瓦屋台家园,安徽省,合肥市,肥西县
皖小能汽车充电站(肥西县陀龙村村民委员会慢充),汽车服务;充电站;充电站,117.03065,31.7062,陀龙村村民委员会紫蓬山培林苗圃东北侧240米,安徽省,合肥市,肥西县
皖小能汽车充电站(肥西县花岗镇芮店社区居委会慢充),汽车服务;充电站;充电站,117.017654,31.651485,芮店社区居委会038县道东,安徽省,合肥市,肥西县
皖小能汽车充电站(肥西县花岗镇大众村村民委员会慢充),汽车服务;充电站;充电站,117.07584,31.659853,大众村委会花岗镇,安徽省,合肥市,肥西县
汽车充电站(瓦屋台家园A区),汽车服务;充电站;充电站,117.028608,31.733735,环山路瓦屋台家园,安徽省,合肥市,肥西县
皖小能汽车充电站(肥西县柿树岗乡界河社区居委会慢充),汽车服务;充电站;充电站,116.85814,31.54423,柿树岗乡界河社区居委会,安徽省,合肥市,肥西县
皖小能汽车充电站(肥西县柿树岗乡廖渡村村委会慢充),汽车服务;充电站;充电站,116.90495,31.539785,柿树岗乡廖渡村村民委员会,安徽省,合肥市,肥西县
汽车充电站(桂香超市充电站),汽车服务;充电站;充电站,116.871581,31.625626,山南镇山洪路026号,安徽省,合肥市,肥西县
皖小能汽车充电站(肥西县山南镇馆北村居委会慢充),汽车服务;充电站;充电站,116.87873,31.631266,馆北村村委会山农路与山吕路交叉口东北140米,安徽省,合肥市,肥西县
皖小能汽车充电站(肥西县山南镇西岗村村委会慢充),汽车服务;充电站;充电站,116.89572,31.614225,山南镇西岗村为民服务大厅西岗新村,安徽省,合肥市,肥西县
皖小能汽车充电站(肥西县柿树岗乡新街社区居委会慢充),汽车服务;充电站;充电站,116.925316,31.555946,新街社区居委会050县道,安徽省,合肥市,肥西县
皖小能汽车充电站(肥西县山南镇李桥佳苑小区慢充),汽车服务;充电站;充电站,116.8698,31.611717,李桥佳苑19幢山袁路与050县道交叉口南50米,安徽省,合肥市,肥西县
皖小能汽车充电站(肥西县柿树岗乡周楼村村委会慢充),汽车服务;充电站;充电站,116.90772,31.580761,柿树岗乡周楼村村委会,安徽省,合肥市,肥西县
皖小能汽车充电站(肥西县山南镇夏寨村村委会慢充),汽车服务;充电站;充电站,116.903946,31.623575,夏寨村村委会山南镇夏寨村,安徽省,合肥市,肥西县
皖小能汽车充电站(肥西县柿树岗乡杨桥村村委会慢充),汽车服务;充电站;充电站,116.884125,31.567884,柿树岗乡杨桥村村委柿树岗乡,安徽省,合肥市,肥西县
皖小能汽车充电站(肥西县山南镇李桥村村委会慢充),汽车服务;充电站;充电站,116.87101,31.613256,山南镇李桥村村民委员会李桥佳苑,安徽省,合肥市,肥西县
皖小能汽车充电站(肥西县柿树岗乡宗洼村村委会慢充),汽车服务;充电站;充电站,116.87327,31.552765,柿树岗乡宗洼村村委会,安徽省,合肥市,肥西县
皖小能汽车充电站(肥西县柿树岗乡马堰村村委会慢充),汽车服务;充电站;充电站,116.86418,31.576956,马堰村村委会山南镇,安徽省,合肥市,肥西县
皖小能汽车充电站(肥西县柿树岗乡袁店村村委会慢充),汽车服务;充电站;充电站,116.90786,31.552225,柿树岗乡袁店村袁店村村委会,安徽省,合肥市,肥西县
宿来电汽车充电站(柿树岗乡中洋广场充电站),汽车服务;充电站;充电站,116.9467,31.589005,中洋路与九龙路交口,安徽省,合肥市,肥西县
皖小能汽车充电站(肥西县柿树岗乡黄花村村委会慢充),汽车服务;充电站;充电站,116.93939,31.631544,柿树岗乡黄花村村委会,安徽省,合肥市,肥西县
皖小能汽车充电站(肥西县花岗镇英塘村村民委员会慢充),汽车服务;充电站;充电站,116.965454,31.643473,英塘村村委会花岗镇英塘村,安徽省,合肥市,肥西县
皖小能汽车充电站(肥西县花岗镇天堰社区居委会慢充),汽车服务;充电站;充电站,116.98608,31.63299,花岗镇天堰社区居委会花岗镇,安徽省,合肥市,肥西县
皖小能汽车充电站(肥西县柿树岗乡代塘村村委会慢充),汽车服务;充电站;充电站,116.97264,31.575441,柿树岗乡代塘村村委会,安徽省,合肥市,肥西县
皖小能汽车充电站(肥西县花岗镇八里社区慢充),汽车服务;充电站;充电站,116.99034,31.580915,八里社区花岗镇八里社区退役军人服务站北侧,安徽省,合肥市,肥西县
蔚享天成汽车充电站(星脉生态园),汽车服务;充电站;充电站,116.96211,31.692091,星脉生态园,安徽省,合肥市,肥西县
皖小能汽车充电站(肥西县柿树岗乡防虎社区公园慢充),汽车服务;充电站;充电站,116.93332,31.68669,柿树岗乡肥西庆菊塑胶有限公司,安徽省,合肥市,肥西县
皖小能汽车充电站(肥西县周公山社区村民委员会慢充),汽车服务;充电站;充电站,116.93,31.739765,人社紫蓬山旅游开发区周公山社区为民服务中心周焦路周公山社区村址,安徽省,合肥市,肥西县
皖小能汽车充电站(肥西县紫蓬山管理会凤凰村村委会慢充),汽车服务;充电站;充电站,116.97385,31.70428,凤凰村委会紫蓬山管理会,安徽省,合肥市,肥西县
皖小能汽车充电站(肥西县花岗镇花西社区村民委员会慢充),汽车服务;充电站;充电站,116.94845,31.654905,花岗镇花西社区退役军人服务站花西社区村民委员会,安徽省,合肥市,肥西县
皖小能汽车充电站(肥西县紫蓬山旅游开发区李陵村村民委员会慢充),汽车服务;充电站;充电站,117.00616,31.697815,紫蓬山旅游开发区李陵村村民委员会紫蓬山旅游开发区李陵村,安徽省,合肥市,肥西县
皖小能汽车充电站(肥西县花岗镇建新社区慢充),汽车服务;充电站;充电站,117.00257,31.651173,建新社区村民委员会花孙路南30米,安徽省,合肥市,肥西县
皖小能汽车充电站(肥西县花岗镇跨河村村委会慢充),汽车服务;充电站;充电站,116.99755,31.67891,跨河村村委会,安徽省,合肥市,肥西县
皖小能汽车充电站(肥西县花岗镇堰南湾小区慢充1),汽车服务;充电站;充电站,116.975685,31.676315,花岗镇堰南湾小区54幢,安徽省,合肥市,肥西县
皖小能汽车充电站(肥西县花岗镇堰南湾小区慢充2),汽车服务;充电站;充电站,116.97556,31.676313,花岗镇堰南湾小区54幢,安徽省,合肥市,肥西县
充电桩,汽车服务;充电站;充电站,116.900528,31.674166,赵大郢,安徽省,合肥市,肥西县
广州蔚星汽车充电站(聚星农贸市场充电站),汽车服务;充电站;充电站,116.88143,31.71789,铭传乡236省道,安徽省,合肥市,肥西县
立炜快充充电站(聚星社区站),汽车服务;充电站;充电站,116.880601,31.716988,农聚路044县,安徽省,合肥市,肥西县
云快充汽车充电站(聚星粮驿民宿),汽车服务;充电站;充电站,116.884916,31.719096,聚星粮驿1953,安徽省,合肥市,肥西县
皖小能汽车充电站(肥西县柿树岗乡双龙社区居委会慢充),汽车服务;充电站;充电站,116.920135,31.676003,柿树岗乡双龙社区居委会,安徽省,合肥市,肥西县
皖小能汽车充电站(肥西县山南镇荷冲村村委会慢充),汽车服务;充电站;充电站,116.86844,31.687895,荷冲村村民委员会,安徽省,合肥市,肥西县
皖小能汽车充电站(肥西县山南镇沈店社区村委会慢充),汽车服务;充电站;充电站,116.85934,31.660229,沈店社区居委会山南镇,安徽省,合肥市,肥西县
皖小能汽车充电站(肥西县山南镇吕楼村社区居委会慢充),汽车服务;充电站;充电站,116.9139,31.644852,山南镇吕楼社区居委会山南镇045县道,安徽省,合肥市,肥西县
能效邻里共享汽车充电站(黄屯街道20号),汽车服务;充电站;充电站,117.4979,31.106749,龙桥镇福兴村黄屯街道20号电线杆旁四层户门口,安徽省,合肥市,庐江县
兖充电汽车充电站(庐江县黄屯农贸市场充电站),汽车服务;充电站;充电站,117.50072,31.104778,龙桥镇023乡道黄屯农贸市场,安徽省,合肥市,庐江县
云快充汽车充电站(庐江金山竹影精品民宿充电站),汽车服务;充电站;充电站,117.514102,31.09973,149县道金山水库,安徽省,合肥市,庐江县
汽车充电站(公牛站),汽车服务;充电站;充电站,117.513082,31.099621,金山水库附近,安徽省,合肥市,庐江县
达克云汽车充电站(公牛坝镇快充站),汽车服务;充电站;充电站,117.57797,31.314714,坝镇卫生院门口,安徽省,合肥市,巢湖市
国家电网汽车充电站(安徽省合肥市巢湖市散兵有序交流充电站),汽车服务;充电站;充电站,117.7518,31.52964,散兵镇散兵供电所门前院外,安徽省,合肥市,巢湖市
达克云汽车充电站(公牛散兵镇高林快充站),汽车服务;充电站;充电站,117.674317,31.449989,[],安徽省,合肥市,巢湖市
国家电网汽车充电站(安徽省合肥市巢湖市半汤疗养院停车场充电站),汽车服务;充电站;充电站,117.917798,31.648201,银泉路1号地面停车场,安徽省,合肥市,巢湖市
云快充汽车充电站(巢湖深业假日酒店),汽车服务;充电站;充电站,117.921874,31.6566,巢湖深业假日酒店,安徽省,合肥市,巢湖市
国家电网汽车充电站(安徽省合肥市巢湖市三瓜公社南瓜村停车场交流充电站),汽车服务;充电站;充电站,117.92028,31.662847,汤山路三瓜公社南瓜村,安徽省,合肥市,巢湖市
达克云汽车充电站(公牛夏阁镇快充站),汽车服务;充电站;充电站,117.83115,31.70589,夏阁镇巢柘路与夏朱路交口西南角,安徽省,合肥市,巢湖市
国家电网汽车充电站(安徽省合肥市巢湖市夏阁有序交流充电站),汽车服务;充电站;充电站,117.828177,31.711115,夏阁镇巢柘路夏阁供电所院外,安徽省,合肥市,巢湖市
云快充汽车充电站(巢湖市宜安云海),汽车服务;充电站;充电站,117.835466,31.650968,夏阁镇云华大道与朝阳山路交叉口,安徽省,合肥市,巢湖市
汽车充电站,汽车服务;充电站;充电站,117.842901,31.662673,平顶山路1号,安徽省,合肥市,巢湖市
国家电网汽车充电站(安徽省合肥市瑶海区少荃湖隧道东侧停车场交流充电站),汽车服务;充电站;充电站,117.382441,31.946865,文忠路合肥京东方医院东侧约230米,安徽省,合肥市,瑶海区
中国石化汽车充电站(东方大道充电站),汽车服务;充电站;充电站,117.332361,31.957166,治淮路以东东方大道以北,安徽省,合肥市,瑶海区
国家电网汽车充电站(安徽省合肥市瑶海区京东方医院北侧少荃湖停车场交流充电站),汽车服务;充电站;充电站,117.378099,31.947507,京东方医院北侧少荃湖公园停车场,安徽省,合肥市,瑶海区
小桔充电汽车充电站(综保税区超级),汽车服务;充电站;充电站,117.344439,31.953919,三十头街道大禹路综合保税区停车场,安徽省,合肥市,瑶海区
易佳电汽车充电站(易佳电蓝鲤综保区充电站),汽车服务;充电站;充电站,117.34582,31.95365,东方大道与大禹路交口保税区地面停车场,安徽省,合肥市,瑶海区
星星充电汽车充电站(佰川机械),汽车服务;充电站;充电站,117.354682,31.982738,三十头街道佰川餐厅,安徽省,合肥市,瑶海区
车电网汽车充电站(合肥京东方医院),汽车服务;充电站;充电站,117.37849,31.94586,东方大道和文忠路交叉口,安徽省,合肥市,瑶海区
晨立汽车充电站,汽车服务;充电站;充电站,117.41041,31.987878,大众路88号,安徽省,合肥市,肥东县
云快充汽车充电站(佳海工业城),汽车服务;充电站;充电站,117.344443,31.978857,新蚌埠路3768号佳海工业城一期C61-102/202/302/402,安徽省,合肥市,瑶海区
国家电网汽车充电站(安徽省合肥市肥东县众兴有序交流充电站),汽车服务;充电站;充电站,117.409129,31.985785,众兴乡花灯村新街供电所外,安徽省,合肥市,肥东县
广州蔚星汽车充电站(安居园),汽车服务;充电站;充电站,117.335556,31.988573,三十头街道安居园,安徽省,合肥市,瑶海区
广州蔚星汽车充电站(东元小区三期),汽车服务;充电站;充电站,117.33378,31.97695,三十头街道东元小区三期,安徽省,合肥市,瑶海区
特来电汽车充电站(毅威出行芯视界充电站),汽车服务;充电站;充电站,117.368029,31.950752,三十头街道东方大道288号,安徽省,合肥市,瑶海区
众兴服务区合肥充电汽车充电站,汽车服务;充电站;充电站,117.418104,31.972918,北环高速众兴服务区北区停车场,安徽省,合肥市,肥东县
众兴服务区国家电网电动汽车充电站,汽车服务;充电站;充电站,117.419877,31.976074,G40沪陕高速附近,安徽省,合肥市,肥东县
中国石化汽车充电站(众兴北充电站),汽车服务;充电站;充电站,117.41873,31.97525,众兴乡G40沪陕高速众兴服务区(沪陕高速西安方向),安徽省,合肥市,肥东县
众兴服务区合肥充电电动汽车充电站,汽车服务;充电站;充电站,117.418107,31.972901,北环高速众兴服务区北区停车场,安徽省,合肥市,肥东县
蔚来能源目的地充电站(内部使用合肥继峰座椅),汽车服务;充电站;充电站,117.46703,31.94955,合肥继烨汽车部件有限公司,安徽省,合肥市,肥东县
云快充汽车充电站(皋源泛能许井社区居委会交流),汽车服务;充电站;充电站,117.461767,32.001224,许井社区卫生室,安徽省,合肥市,肥东县
星星充电汽车充电站(肥东县铁头集中式快速),汽车服务;充电站;充电站,117.441534,32.096819,白龙镇合肥市农翔粮食贸易有限公司,安徽省,合肥市,肥东县
云快充汽车充电站(云快充汽车充电站长王新农村站),汽车服务;充电站;充电站,117.440674,32.100723,白龙镇长王社区居民委员会北,安徽省,合肥市,肥东县
云快充汽车充电站(安徽奥丰充电站),汽车服务;充电站;充电站,117.42977,32.081055,白龙镇同心社区合白路南150米,安徽省,合肥市,肥东县
汽车充电站(元疃镇阳光花园站),汽车服务;充电站;充电站,117.380631,32.065352,元疃镇阳光花园小区,安徽省,合肥市,肥东县
云快充汽车充电站(公牛官亭丰庆汽修充电站),汽车服务;充电站;充电站,116.744822,31.779984,官亭镇金桥社区长江西路辅路与113乡道交叉口西500米,安徽省,合肥市,肥西县
世动云充汽车充电站(世动云充合肥市肥西县官亭镇充电站),汽车服务;充电站;充电站,116.744858,31.779413,官亭镇长江西路辅路,安徽省,合肥市,肥西县
广州蔚星汽车充电站(世动云充合肥市肥西县官亭镇充电站),汽车服务;充电站;充电站,116.74486,31.779413,官亭镇长江西路辅路,安徽省,合肥市,肥西县
云快充汽车充电站(肥西县八一科技学校),汽车服务;充电站;充电站,116.756052,31.781423,八一科技学校,安徽省,合肥市,肥西县
云快充汽车充电站(肥西金桥小学),汽车服务;充电站;充电站,116.756854,31.780082,金桥小学,安徽省,合肥市,肥西县
皖小能汽车充电站(肥西县官亭镇楼郢村村委会慢充),汽车服务;充电站;充电站,116.71369,31.803267,官亭镇楼郢村村委会,安徽省,合肥市,肥西县
皖小能汽车充电站(肥西县官亭镇金星村村委会慢充),汽车服务;充电站;充电站,116.72305,31.7962,中共金星村支部委员会官亭镇113乡道金星村村委会,安徽省,合肥市,肥西县
皖小能汽车充电站(肥西县官亭镇缪大庄村村委会慢充),汽车服务;充电站;充电站,116.74812,31.82064,官亭镇缪大庄村村委会官亭镇缪大庄村,安徽省,合肥市,肥西县
能效邻里共享汽车充电站(能效充电桩周大郢刘杰家),汽车服务;充电站;充电站,116.75387,31.831072,周大郢,安徽省,合肥市,肥西县
皖小能汽车充电站(肥西县官亭镇朱桥村村委会慢充),汽车服务;充电站;充电站,116.76136,31.816496,朱桥村村委会官亭镇朱桥村,安徽省,合肥市,肥西县
汽车充电站(立炜电力江夏店社区站),汽车服务;充电站;充电站,116.800462,31.819252,042县道,安徽省,合肥市,肥西县
云快充汽车充电站(金桥王祠充电站),汽车服务;充电站;充电站,116.768795,31.781185,官亭镇金桥乡王祠村十二队长江西路辅路旁,安徽省,合肥市,肥西县
官亭收费站汽车充电站,汽车服务;充电站;充电站,116.791667,31.779841,长江西路,安徽省,合肥市,肥西县
云快充汽车充电站(肥西江夏小学),汽车服务;充电站;充电站,116.803932,31.833776,江夏小学,安徽省,合肥市,肥西县
皖小能汽车充电站(肥西县铭传乡墩塘村退役军人服务慢充),汽车服务;充电站;充电站,116.79095,31.76018,铭传乡墩塘村退役军人服务站铭传乡墩塘村小学村民组,安徽省,合肥市,肥西县
皖小能汽车充电站(肥西县官亭镇半店社区村委会慢充),汽车服务;充电站;充电站,116.806915,31.780994,半店社区村民委员会半王路与长江西路辅路交叉口北80米,安徽省,合肥市,肥西县
皖小能汽车充电站(肥西县官亭镇夏祠村村委会慢充),汽车服务;充电站;充电站,116.84667,31.813473,夏祠村村委会人社社保服务窗口(夏祠村为民服务中心)西侧,安徽省,合肥市,肥西县
皖小能汽车充电站(肥西县官亭镇姚岗村委会慢充),汽车服务;充电站;充电站,116.79948,31.805098,官亭镇姚岗村党群服务中心,安徽省,合肥市,肥西县
广州蔚星汽车充电站(高店镇充电站),汽车服务;充电站;充电站,116.83602,31.90472,高店镇长高路,安徽省,合肥市,肥西县
汽车充电站(立炜快充高店镇充电站),汽车服务;充电站;充电站,116.835495,31.904457,长高路050县,安徽省,合肥市,肥西县
皖小能汽车充电站(肥西县高店镇高店社区居委会慢充),汽车服务;充电站;充电站,116.836136,31.9036,高店社区居委会236省道与长高路交叉口东南120米,安徽省,合肥市,肥西县
皖小能汽车充电站(肥西县高店镇仪城村村委会慢充),汽车服务;充电站;充电站,116.79919,31.898302,高店镇仪城村村委会法治文化长廊,安徽省,合肥市,肥西县
皖小能汽车充电站(肥西县高店镇邵庙村村民委员会慢充),汽车服务;充电站;充电站,116.84332,31.883123,邵庙村村民委员会高店镇邵庙村村部,安徽省,合肥市,肥西县
皖小能汽车充电站(肥西县官亭镇王集新村慢充),汽车服务;充电站;充电站,116.78099,31.863682,官亭镇王集新村,安徽省,合肥市,肥西县
皖小能汽车充电站(肥西县官亭镇马店社区居委会慢充),汽车服务;充电站;充电站,116.77823,31.866806,官亭镇马店社区党群服务中心人社社保服务窗口(马店社区为民服务大厅)西侧,安徽省,合肥市,肥西县
能效邻里共享汽车充电站(面访),汽车服务;充电站;充电站,116.82074,31.86581,官亭镇八十墩村面坊村民组,安徽省,合肥市,肥西县
皖小能汽车充电站(肥西县官亭镇黄店村村委会慢充),汽车服务;充电站;充电站,116.79118,31.846502,黄店村村委会官亭镇黄店村,安徽省,合肥市,肥西县
皖小能汽车充电站(肥西县官亭镇八十墩村村委会慢充),汽车服务;充电站;充电站,116.826904,31.856916,官亭镇八十墩村村民委员会147乡道东40米,安徽省,合肥市,肥西县
皖小能汽车充电站(肥西县官亭镇余店村村委会慢充),汽车服务;充电站;充电站,116.784676,31.899956,官亭镇余店村村民委员会官亭镇余店村,安徽省,合肥市,肥西县
皖小能汽车充电站(肥西县官亭镇金郢社区居民委员会慢充),汽车服务;充电站;充电站,116.73627,31.875723,官亭镇金郢社区居民委员会沪陕高速,安徽省,合肥市,肥西县
皖小能汽车充电站(肥西县官亭镇郭桥村村委会慢充),汽车服务;充电站;充电站,116.75065,31.85074,官亭镇郭桥村村民委员会官亭镇郭桥村,安徽省,合肥市,肥西县
蔚享天成汽车充电站(官厅镇林海和园小区10栋地库),汽车服务;充电站;充电站,116.88409,31.806923,官亭镇沪霍线辅路厅镇林海和园小区10栋地库,安徽省,合肥市,肥西县
国家电网汽车充电站(安徽省合肥市肥西县官亭有序交流充电站),汽车服务;充电站;充电站,116.872959,31.793849,官亭镇官山路供电所院内,安徽省,合肥市,肥西县
汽车充电站(小朗充电-林海锦苑),汽车服务;充电站;充电站,116.87473,31.796919,官亭镇林海苑小区地下车库10栋负一层北侧,安徽省,合肥市,肥西县
皖小能汽车充电站(肥西县官亭镇官亭中学慢充),汽车服务;充电站;充电站,116.85919,31.79358,官亭初级中学官亭中学,安徽省,合肥市,肥西县
皖小能汽车充电站(肥西县官亭镇河北村村委会慢充),汽车服务;充电站;充电站,116.855194,31.826698,河北村村民委员会,安徽省,合肥市,肥西县
中国石化汽车充电站(运河新城充电站),汽车服务;充电站;充电站,117.008534,31.829872,中国石化运河新城加油站,安徽省,合肥市,蜀山区
国家电网汽车充电站(安徽省合肥市肥西县紫蓬镇梁岗社区停车场充电站),汽车服务;充电站;充电站,116.9961,31.748249,环山路梁岗社区公共停车场,安徽省,合肥市,肥西县
汽车充电站(启源充换电站合肥新桥大道2号站),汽车服务;充电站;充电站,116.99953,31.842291,小庙镇新桥大道辅路小庙公交枢纽站旁,安徽省,合肥市,蜀山区
汽车充电站(枣林小区C区),汽车服务;充电站;充电站,116.985999,31.836722,小庙镇枣林小区(东南门),安徽省,合肥市,蜀山区
汽车充电站(启源充换电站合肥新桥大道1号站),汽车服务;充电站;充电站,116.99953,31.842291,小庙镇新桥大道辅路小庙公交枢纽站旁,安徽省,合肥市,蜀山区
汽车充电站(枣林小区B区),汽车服务;充电站;充电站,116.985714,31.839212,小庙镇枣林小区58幢,安徽省,合肥市,蜀山区
汽车充电站(枣林小区A区),汽车服务;充电站;充电站,116.985999,31.836722,小庙镇枣林小区(东南门),安徽省,合肥市,蜀山区
皖小能汽车充电站(肥西县紫蓬镇新农村村委会慢充),汽车服务;充电站;充电站,116.9601,31.746742,紫蓬山镇新农村村委会环山路南50米新农小学附近,安徽省,合肥市,肥西县
皖小能汽车充电站(肥西县紫蓬镇梁岗社区村委会慢充),汽车服务;充电站;充电站,116.9994,31.751942,紫蓬山旅游开发区梁岗社区村民委员会森林大道3号,安徽省,合肥市,肥西县
云快充汽车充电站(荣顺便民),汽车服务;充电站;充电站,116.939395,31.936782,高刘锦尚公馆东南(X041东)蜀山区海棠路B64号,安徽省,合肥市,蜀山区
云快充汽车充电站(车闪电今夜烧烤),汽车服务;充电站;充电站,116.936466,31.937861,高刘街道高洪街46号,安徽省,合肥市,蜀山区
微来充合肥惠尔乐酒店充电桩,汽车服务;充电站;充电站,116.93284,31.933587,高洪街与羽绒街交叉口东20米,安徽省,合肥市,蜀山区
汽车充电站(桃梨天下农果城),汽车服务;充电站;充电站,116.965534,31.921251,"高新技术产业开发区,新桥大道777号桃梨天下农果城地面停车位",安徽省,合肥市,蜀山区
汽车充电站(合肥市经开区莲荷路62号振荣锦尚公馆小区小飞象站),汽车服务;充电站;充电站,116.9382,31.937226,莲荷路62号振荣锦尚公馆小区,安徽省,合肥市,蜀山区
国家电网汽车充电站(沪陕高速新桥服务区充电站西安方向),汽车服务;充电站;充电站,116.894888,31.920676,沪陕高速新桥服务区西安方向,安徽省,合肥市,蜀山区
理想汽车充电站(理想5C超充站沪陕高速新桥服务区上海方向),汽车服务;充电站;充电站,116.89353,31.918764,新桥服务区,安徽省,合肥市,蜀山区
理想汽车充电站(理想5C超充站沪陕高速新桥服务区西安方向),汽车服务;充电站;充电站,116.89518,31.920582,新桥服务区,安徽省,合肥市,蜀山区
国家电网汽车充电站(沪蓉高速新桥服务区充电站成都方向2),汽车服务;充电站;充电站,116.894983,31.920661,合六叶高速新桥服务区,安徽省,合肥市,蜀山区
国家电网汽车充电站(沪蓉高速新桥服务区充电站上海方向),汽车服务;充电站;充电站,116.893372,31.918304,沪蓉高速新桥服务区上海方向,安徽省,合肥市,蜀山区
蔚来能源汽车充电站(上海方向G40沪陕高速新桥服务区),汽车服务;充电站;充电站,116.892863,31.918457,新桥服务区(G40南),安徽省,合肥市,蜀山区
国家电网汽车充电站(沪陕高速新桥服务区充电站上海方向2),汽车服务;充电站;充电站,116.893255,31.918457,沪陕高速新桥服务区充电站(上海方向),安徽省,合肥市,蜀山区
蔚来能源汽车充电站(西安方向G40沪陕高速新桥服务区),汽车服务;充电站;充电站,116.8942,31.920427,新桥服务区北侧,安徽省,合肥市,蜀山区
云快充汽车充电站(能量驰官高路加油加气充电站),汽车服务;充电站;充电站,116.892253,31.843292,高店镇长镇街道官高路与白马墩路交口东南角,安徽省,合肥市,肥西县
蔚来能源汽车充电站(上海方向G40沪陕高速新桥服务区),汽车服务;充电站;充电站,116.892891,31.918449,新桥服务区西侧,安徽省,合肥市,蜀山区
易佳电汽车充电站(易佳电沪蓉高速新桥服务区充电站成都方向),汽车服务;充电站;充电站,116.89484,31.920694,沪蓉高速新桥服务区(成都方向),安徽省,合肥市,蜀山区
易佳电汽车充电站(易佳电沪蓉高速新桥服务区充电站上海方向),汽车服务;充电站;充电站,116.89335,31.918377,沪蓉高速新桥服务区充电站(上海方向),安徽省,合肥市,蜀山区
皖小能汽车充电站(肥西县高店镇长镇回族社区居委会慢充),汽车服务;充电站;充电站,116.893745,31.851854,长镇回族社区居委会高长路高店乡长镇回族社区居民委员会,安徽省,合肥市,肥西县
合肥新桥国际机场P2停车场充电站,汽车服务;充电站;充电站,116.97501,31.985213,充电合肥新桥机场出租车蓄车区汽车充电站东侧130米,安徽省,合肥市,蜀山区
特来电汽车充电站(合肥新桥机场集团办公楼停车场充电站),汽车服务;充电站;充电站,116.981241,31.971595,高刘街道合肥新桥国际机场改扩建工程建设指挥部,安徽省,合肥市,蜀山区
合肥充电新桥机场社会停车场汽车充电站,汽车服务;充电站;充电站,116.973182,31.985495,合肥新桥国际机场社会停车场内,安徽省,合肥市,蜀山区
蔚来能源目的地充电站(内部使用合肥东航新桥机场南区),汽车服务;充电站;充电站,116.97898,31.969896,紫荆花路与台兰路交叉口东南180米东航南区,安徽省,合肥市,蜀山区
汽车充电站(合肥充电新桥机场出租车蓄车区充电站),汽车服务;充电站;充电站,116.97321,31.985122,新桥国际机场出租车蓄车区停车场内,安徽省,合肥市,蜀山区
蔚来能源目的地充电站(内部使用合肥东航新桥机场北区),汽车服务;充电站;充电站,116.967445,31.998148,091乡道附近东航北区,安徽省,合肥市,蜀山区
蔚来能源目的地充电站(合肥新桥国际机场全季酒店),汽车服务;充电站;充电站,116.98799,32.00007,空港示范区龙嘉路与白云路交口,安徽省,合肥市,蜀山区
蔚来能源目的地充电站(内部使用合肥延锋国际),汽车服务;充电站;充电站,116.98522,31.999289,空港示范区龙嘉路与白云路交口,安徽省,合肥市,蜀山区
汽车充电站,汽车服务;充电站;充电站,116.939698,31.942439,河滨路11号,安徽省,合肥市,蜀山区
皖小能汽车充电站(吴山镇薛店村),汽车服务;充电站;充电站,117.004005,32.133614,吴山镇薛店村民委员会吴山镇薛店村,安徽省,合肥市,长丰县
汽车充电站,汽车服务;充电站;充电站,117.083294,31.828466,城西桥家园B组团地下车库6栋附近来点电充电站,安徽省,合肥市,蜀山区
汽车充电站(紫蓬家园幼儿园),汽车服务;充电站;充电站,117.084943,31.756823,将军领路紫蓬家园幼儿园旁边地面停车位,安徽省,合肥市,肥西县
汽车充电站(小朗充电-烧脉村集体租赁住房),汽车服务;充电站;充电站,117.075277,31.766005,紫蓬镇小树林土菜馆烧脉村集体租赁住房3栋东侧停车位,安徽省,合肥市,肥西县
云快充汽车充电站(农兴中学),汽车服务;充电站;充电站,117.017484,31.751859,农兴中学,安徽省,合肥市,肥西县
汽车充电站(繁华紫园),汽车服务;充电站;充电站,117.027212,31.749482,"紫蓬镇肥西都市驿家商务宾馆繁华紫园主大门直走左转,地面停车位",安徽省,合肥市,肥西县
汽车充电站(紫蓬家园Z20栋),汽车服务;充电站;充电站,117.08102,31.755824,",合肥市,肥西县,紫蓬镇,将军领路紫蓬家园Z20栋旁边",安徽省,合肥市,肥西县
汽车充电站(紫蓬家园Z10栋),汽车服务;充电站;充电站,117.080842,31.756937,",合肥市,肥西县,紫蓬镇,将军领路紫蓬家园Z10栋旁边地面停车位",安徽省,合肥市,肥西县
皖小能汽车充电站(肥西县紫蓬镇烧脉村村委会慢充),汽车服务;充电站;充电站,117.07437,31.76462,烧脉村村民委员会紫蓬农家大院北侧220米,安徽省,合肥市,肥西县
皖小能汽车充电站(肥西县紫蓬镇农兴社区慢充),汽车服务;充电站;充电站,117.023186,31.757013,紫蓬镇紫蓬路27号,安徽省,合肥市,肥西县
皖小能汽车充电站(肥西县紫蓬镇长刘社区慢充),汽车服务;充电站;充电站,117.04818,31.768784,紫蓬镇长刘社区居民委员会,安徽省,合肥市,肥西县
国家电网汽车充电站(安徽省合肥市蜀山区鸡鸣山路量子科仪谷西门停车场充电站),汽车服务;充电站;充电站,117.089229,31.844281,鸡鸣山路与皖水路交叉口南180米,安徽省,合肥市,蜀山区
中国石化汽车充电站(响洪甸路充电站),汽车服务;充电站;充电站,117.080872,31.867708,中国石化合肥响洪甸路加油站,安徽省,合肥市,蜀山区
国家电网汽车充电站(安徽派河小庙镇五十墩小区南区充电站),汽车服务;充电站;充电站,117.016654,31.853288,小庙镇小高路五十墩小区停车场,安徽省,合肥市,蜀山区
合肥市蜀山区小庙镇五十墩南区停车场充电站,汽车服务;充电站;充电站,117.016673,31.853411,小庙镇五十墩小区南区停车场,安徽省,合肥市,蜀山区
云快充汽车充电站(合肥市蜀山区岭楠徐府餐饮店),汽车服务;充电站;充电站,117.065468,31.894999,小庙镇马岗村候塘村民组168号,安徽省,合肥市,蜀山区
特来电充电站(固力发超充电站),汽车服务;充电站;充电站,117.18644,31.95624,岗集镇瑞丰路218号金地丽景对面,安徽省,合肥市,长丰县
皖能岗集金湖公园汽车充电站,汽车服务;充电站;充电站,117.19017,31.955783,金岗大道8号,安徽省,合肥市,长丰县
特斯拉超级充电站(合肥北城方圆荟),汽车服务;充电站;充电站,117.247469,32.00255,蒙城北路与双墩路交口合肥北城世纪金源购物中心地下停车场负一层D区/入口双墩路,安徽省,合肥市,长丰县
皖小能汽车充电站(双墩镇骱勇),汽车服务;充电站;充电站,117.24993,32.01047,骱勇,安徽省,合肥市,长丰县
皖小能汽车充电站(双墩镇北城运动公园),汽车服务;充电站;充电站,117.23802,32.016197,双墩镇蒙城北路辅路北城运动公园内(西侧),安徽省,合肥市,长丰县
小桔充电汽车充电站(合肥北城购物中心),汽车服务;充电站;充电站,117.246323,32.00423,世纪金源购物中心(北城店),安徽省,合肥市,长丰县
特来电汽车充电站(北城世纪金源),汽车服务;充电站;充电站,117.244658,32.003963,双墩路与兴旺路交叉口西南140米,安徽省,合肥市,长丰县
小桔充电汽车充电站(合肥北城世纪金源大饭店),汽车服务;充电站;充电站,117.247893,31.997154,北城世纪金源大饭店停车场,安徽省,合肥市,长丰县
皖小能汽车充电站(岗集镇综合文化),汽车服务;充电站;充电站,117.19726,31.942066,金岗大道绿城雅苑东215米,安徽省,合肥市,长丰县
开迈斯汽车充电站(合肥市北城世纪金源购物中心站),汽车服务;充电站;充电站,117.248231,32.003034,蒙城北路与双墩路交口北城世纪金源购物中心地下停车场B1层,安徽省,合肥市,长丰县
特来电汽车充电站(北城世纪金源充电站),汽车服务;充电站;充电站,117.247522,32.002837,北城世纪金源购物中心负二层车库停车位,安徽省,合肥市,长丰县
特来电汽车充电站(北城世纪金源二期充电站),汽车服务;充电站;充电站,117.24735,32.002656,北城世纪金源购物中心地下停车场D2-518,安徽省,合肥市,长丰县
皖能岗集综合文化站停车场汽车充电站,汽车服务;充电站;充电站,117.197725,31.942336,金岗大道1号,安徽省,合肥市,长丰县
皖小能汽车充电站(岗集镇前丰社区),汽车服务;充电站;充电站,117.199,31.945044,岗集镇前丰社区居民委员会岗集公租房,安徽省,合肥市,长丰县
云快充汽车充电站(安徽意华电器有限公司),汽车服务;充电站;充电站,117.189679,31.964583,岗集镇神龙路与JAC大道交口,安徽省,合肥市,长丰县
合肥充电北城凤梅家园西区充电站,汽车服务;充电站;充电站,117.245732,31.975775,润梅路3号,安徽省,合肥市,长丰县
皖小能汽车充电站(岗集镇三十埠社区),汽车服务;充电站;充电站,117.1768,31.982222,岗集镇三十埠社区长丰县岗集镇三十埠社区居民委员会,安徽省,合肥市,长丰县
皖小能汽车充电站(岗集镇新庄社区),汽车服务;充电站;充电站,117.21609,31.980288,岗集镇新庄社区居委会岗集镇新庄社居委监督委员会,安徽省,合肥市,长丰县
皖小能汽车充电站(岗集镇龙岗社区),汽车服务;充电站;充电站,117.2366,31.957384,岗集镇龙岗社区居委会,安徽省,合肥市,长丰县
广州蔚星汽车充电站(世动云充合肥市长丰县双墩镇充电站),汽车服务;充电站;充电站,117.25289,32.09701,双墩镇合水路,安徽省,合肥市,长丰县
皖小能汽车充电站(双墩镇华丰村),汽车服务;充电站;充电站,117.309395,32.0631,双墩镇华丰村役军军人服务站华丰村村民委员会,安徽省,合肥市,长丰县
皖小能汽车充电站(双墩镇海宝村),汽车服务;充电站;充电站,117.30994,32.119865,双墩镇海宝村委会,安徽省,合肥市,长丰县
皖小能汽车充电站(双墩镇金坝村),汽车服务;充电站;充电站,117.28635,32.11336,双墩镇金坝村党群服务中心长丰县双墩镇金坝村民委员会,安徽省,合肥市,长丰县
皖小能汽车充电站(双墩镇新集村),汽车服务;充电站;充电站,117.265915,32.131214,双墩镇新集村民委员会,安徽省,合肥市,长丰县
中国石化汽车充电站(蒙城北路充电站),汽车服务;充电站;充电站,117.233246,32.044754,中国石化蒙城北路加油站,安徽省,合肥市,长丰县
广州蔚星汽车充电站(长丰双墩锐鑫快充电站罗集国家电网红绿灯处正对面),汽车服务;充电站;充电站,117.249825,32.104862,双墩镇合水路(红绿灯国家电网)对面,安徽省,合肥市,长丰县
驴充充汽车充电站(长丰县罗集中心校),汽车服务;充电站;充电站,117.24825,32.10774,S102(合水路)长丰县罗集中心校,安徽省,合肥市,长丰县
皖小能汽车充电站(双墩镇富水村),汽车服务;充电站;充电站,117.23903,32.071983,双墩镇富水村民委员会双墩镇,安徽省,合肥市,长丰县
皖小能汽车充电站(双墩镇罗集村),汽车服务;充电站;充电站,117.24877,32.101585,罗集村,安徽省,合肥市,长丰县
皖小能汽车充电站(双墩镇兴岭村),汽车服务;充电站;充电站,117.22573,32.04725,双墩镇兴岭村委会,安徽省,合肥市,长丰县
皖小能汽车充电站(双墩镇马庙村),汽车服务;充电站;充电站,117.222404,32.124935,双墩镇马庙村委会马庙村委会,安徽省,合肥市,长丰县
皖小能汽车充电站(陶楼镇高塘社区),汽车服务;充电站;充电站,117.17838,32.08262,陶楼镇高塘社区居委会,安徽省,合肥市,长丰县
皖小能汽车充电站(陶楼镇陈祠村),汽车服务;充电站;充电站,117.19741,32.128525,陶楼镇中共陈祠村总支委员会陈祠村村委会,安徽省,合肥市,长丰县
长丰双墩锐鑫快充站,汽车服务;充电站;充电站,117.249498,32.105358,合水路西侧罗集社区,安徽省,合肥市,长丰县
皖小能汽车充电站(双墩镇富民村),汽车服务;充电站;充电站,117.18983,32.062355,双墩镇富民村支部委员会富民家园大门口处,安徽省,合肥市,长丰县
皖小能汽车充电站(双墩镇夏店村),汽车服务;充电站;充电站,117.201454,32.041687,双墩镇夏店村村民委员会双墩镇夏店村,安徽省,合肥市,长丰县
皖小能汽车充电站(双墩镇北苑村),汽车服务;充电站;充电站,117.19674,32.05655,双墩镇北苑村委会,安徽省,合肥市,长丰县
特来电汽车充电站(安徽港啤智能充电站),汽车服务;充电站;充电站,117.039622,31.961617,高刘街道虹桥路,安徽省,合肥市,蜀山区
合肥充电泰坦长岗公园充电站,汽车服务;充电站;充电站,117.035127,31.967726,高刘镇长岗社区金莲花路经开区公安局交通巡逻队对面,安徽省,合肥市,蜀山区
特来电充电站(合肥港啤啤酒店),汽车服务;充电站;充电站,117.045067,31.948734,刘小店百斯特家居院内,安徽省,合肥市,蜀山区
星星充电汽车充电站(合肥港啤啤酒网约车),汽车服务;充电站;充电站,117.04469,31.948301,合肥市经济技术开发区高刘社区南庄居委会北300米,安徽省,合肥市,蜀山区
汽车充电站(团肥路停车场充电站),汽车服务;充电站;充电站,117.031152,31.971233,团肥路与云湖路交口,安徽省,合肥市,蜀山区
蔚来能源目的地充电站(内部使用合肥168新桥学校初中部),汽车服务;充电站;充电站,117.03009,31.957022,高刘镇合肥市经济技术开发区,安徽省,合肥市,蜀山区
云快充汽车充电站(云水岗北),汽车服务;充电站;充电站,117.080327,31.978215,岗集镇谷大郢,安徽省,合肥市,长丰县
皖小能汽车充电站(吴山镇车左村),汽车服务;充电站;充电站,117.054115,32.019337,吴山镇车左村村务监督委员会长丰县吴山镇车左村民居委会,安徽省,合肥市,长丰县
星星充电汽车充电站(蔚尔加电辰阳府),汽车服务;充电站;充电站,117.148993,31.970938,岗集镇朝阳路与兴业大道交口东南约160米,安徽省,合肥市,长丰县
皖小能汽车充电站(岗集镇卧龙山社区),汽车服务;充电站;充电站,117.11846,31.993713,岗集镇卧龙山社区土山小学,安徽省,合肥市,长丰县
云快充汽车充电站(洁致温泉充电站),汽车服务;充电站;充电站,117.095446,32.026363,岗集镇斗镇村郑小洼组28号,安徽省,合肥市,长丰县
汽车充电站(小朗充电-合肥杏花物流园),汽车服务;充电站;充电站,117.146,31.9672,"杏花印务正门入口处,地下车库负一层,第二个门,右侧",安徽省,合肥市,长丰县
皖小能汽车充电站(岗集镇松棵村),汽车服务;充电站;充电站,117.09624,31.975418,岗集镇松棵村委会,安徽省,合肥市,长丰县
云快充汽车充电站(合肥鼎泓机械),汽车服务;充电站;充电站,117.098583,32.02796,岗集鼎泓机械有限公司(G206东100米),安徽省,合肥市,长丰县
皖小能汽车充电站(岗集镇四十埠村),汽车服务;充电站;充电站,117.14499,32.015522,岗集镇四十埠村村委会四十埠小学,安徽省,合肥市,长丰县
中国(合肥)非物质文化遗产园-手机充电桩,汽车服务;充电站;充电站,117.114656,32.005115,玻璃桥西北侧180米,安徽省,合肥市,长丰县
皖小能汽车充电站(岗集镇桃山村新小郢小区),汽车服务;充电站;充电站,117.155914,32.024654,岗集镇桃山村党群服务中心桃山村委会,安徽省,合肥市,长丰县
皖小能汽车充电站(吴山镇吴王广场),汽车服务;充电站;充电站,117.065908,32.069297,053县道与018县道交叉口西北180米,安徽省,合肥市,长丰县
皖小能汽车充电站(皖小能吴山镇百花公园),汽车服务;充电站;充电站,117.0706,32.06542,吴山镇百花街与镇中路交口西南角停车场,安徽省,合肥市,长丰县
皖小能汽车充电站(吴山镇政府停车场),汽车服务;充电站;充电站,117.07903,32.064518,吴山镇人民政府,安徽省,合肥市,长丰县
汽车充电站(晟威鑫城华府),汽车服务;充电站;充电站,117.073168,32.065654,晟威鑫城华府进小区大门右转20米8栋、进小区大门左转209栋门口地面停车位,安徽省,合肥市,长丰县
皖小能汽车充电站(吴山镇桥冲村),汽车服务;充电站;充电站,117.06684,32.042828,吴山镇桥冲村退役军人服务管理站,安徽省,合肥市,长丰县
皖小能汽车充电站(吴山镇高岗村),汽车服务;充电站;充电站,117.03731,32.07951,吴山镇高岗村退役军人服务站吴山镇高岗村村民委员会,安徽省,合肥市,长丰县
皖小能汽车充电站(吴山镇四墩村),汽车服务;充电站;充电站,117.080376,32.11532,吴山镇四墩村民委员会,安徽省,合肥市,长丰县
皖小能汽车充电站(吴山镇岗楼村),汽车服务;充电站;充电站,117.04836,32.13869,吴山镇岗楼村退役军人服务站吴山镇岗楼村民委员会,安徽省,合肥市,长丰县
皖小能汽车充电站(吴山镇梨园村),汽车服务;充电站;充电站,117.03438,32.128674,吴山镇梨园村村民委员会,安徽省,合肥市,长丰县
皖小能汽车充电站(吴山镇官府社区),汽车服务;充电站;充电站,117.03422,32.109013,吴山镇官府社区退役军人服务站,安徽省,合肥市,长丰县
皖小能汽车充电站(杨庙镇陶店村),汽车服务;充电站;充电站,117.08315,32.18921,杨庙镇陶店村党群服务中心陶店村委会,安徽省,合肥市,长丰县
皖小能汽车充电站(杨庙镇四树村),汽车服务;充电站;充电站,117.08836,32.15006,杨庙镇四树村西大郢居民活动中心,安徽省,合肥市,长丰县
皖小能汽车充电站(杨庙镇枣林村),汽车服务;充电站;充电站,117.033676,32.200356,枣林铺村村民委员会枣林大道与圩里路交叉口东南280米,安徽省,合肥市,长丰县
皖小能汽车充电站(杨庙镇杨庙小学),汽车服务;充电站;充电站,117.085,32.198715,杨庙镇育才路长丰县杨庙镇中心学校,安徽省,合肥市,长丰县
皖小能汽车充电站(杨庙镇大元村),汽车服务;充电站;充电站,117.02164,32.21493,杨庙镇大元村村民委员会杨庙镇大元村,安徽省,合肥市,长丰县
皖小能汽车充电站(杨庙镇颜岗村),汽车服务;充电站;充电站,117.071655,32.21843,颜岗村村民委员会杨氏庄园西侧270米,安徽省,合肥市,长丰县
皖小能汽车充电站(杨庙镇十井村),汽车服务;充电站;充电站,117.08719,32.23867,杨庙镇十井村村委,安徽省,合肥市,长丰县
皖小能汽车充电站(吴山镇涂郢社区),汽车服务;充电站;充电站,117.02682,32.14864,吴山镇涂郢社区退役军人服务站吴山镇涂郢社区居民委员会,安徽省,合肥市,长丰县
皖小能汽车充电站(杨庙镇宋楼村),汽车服务;充电站;充电站,117.03196,32.167404,宋楼村村民委员会宋楼村便民超市西侧60米,安徽省,合肥市,长丰县
皖小能汽车充电站(杨庙镇大路村),汽车服务;充电站;充电站,117.06269,32.206642,大路村村民委员会大元路北40米,安徽省,合肥市,长丰县
皖小能汽车充电站(杨庙镇双塘村),汽车服务;充电站;充电站,117.08688,32.218735,杨庙镇双塘村村民委员会206国道东200米,安徽省,合肥市,长丰县
皖小能汽车充电站(杨庙镇政府),汽车服务;充电站;充电站,117.08738,32.192932,杨庙镇人民政府,安徽省,合肥市,长丰县
皖小能汽车充电站(杨庙镇豸铺村),汽车服务;充电站;充电站,117.06485,32.17723,杨庙镇豸铺村,安徽省,合肥市,长丰县
皖小能汽车充电站(杨庙镇谷大郢村),汽车服务;充电站;充电站,117.05104,32.157406,杨庙镇谷大郢村民委员会杨庙镇谷大郢村,安徽省,合肥市,长丰县
皖小能汽车充电站(陶楼镇古城社区),汽车服务;充电站;充电站,117.13834,32.14669,陶楼镇古城社区居民委员会陶楼乡古城村委会,安徽省,合肥市,长丰县
皖小能汽车充电站(下塘镇古楼社区),汽车服务;充电站;充电站,117.15107,32.191807,下塘镇中共古楼社区总支委员会古楼村委会,安徽省,合肥市,长丰县
皖小能汽车充电站(杨庙镇大程村),汽车服务;充电站;充电站,117.11597,32.22203,大程村村民委员会建华路与光明路交叉口东220米,安徽省,合肥市,长丰县
皖小能汽车充电站(下塘镇西葛社区),汽车服务;充电站;充电站,117.15251,32.220783,下塘镇西葛社区居委会,安徽省,合肥市,长丰县
汽车充电站(皖小能庄墓下坝站),汽车服务;充电站;充电站,117.124221,32.333346,庄墓村委会庄墓街道与向阳路交叉口南100米,安徽省,合肥市,长丰县
皖小能汽车充电站(义井镇曹岗村),汽车服务;充电站;充电站,117.103065,32.309093,义井镇曹岗村村民委员会,安徽省,合肥市,长丰县
汽车充电站(云快充站),汽车服务;充电站;充电站,117.118066,32.322483,庄墓镇聚缘山庄,安徽省,合肥市,长丰县
皖小能汽车充电站(义井镇政府),汽车服务;充电站;充电站,117.11011,32.295055,义井镇人民政府,安徽省,合肥市,长丰县
皖小能汽车充电站(义井镇迎水村葫芦湾小区),汽车服务;充电站;充电站,117.16893,32.27293,义井镇蒙城北路,安徽省,合肥市,长丰县
皖小能汽车充电站(义井镇涂拐社区),汽车服务;充电站;充电站,117.10204,32.252705,义井镇涂拐社区退伍军人服务管理站050乡道,安徽省,合肥市,长丰县
皖小能汽车充电站(义井镇蔡岗村),汽车服务;充电站;充电站,117.10815,32.264732,蔡岗村委会206国道附近,安徽省,合肥市,长丰县
皖小能汽车充电站(庄墓镇刘浅社区),汽车服务;充电站;充电站,117.141075,32.33738,庄墓镇刘浅社区社会组织联合会刘浅社区居委会,安徽省,合肥市,长丰县
皖小能汽车充电站(义井镇楼丰村),汽车服务;充电站;充电站,117.11345,32.28816,义井镇楼丰村村委会,安徽省,合肥市,长丰县
皖小能汽车充电站(义井镇杨店村),汽车服务;充电站;充电站,117.14827,32.317524,义井镇杨店村村委会,安徽省,合肥市,长丰县
皖小能汽车充电站(义井镇龙王村),汽车服务;充电站;充电站,117.13006,32.285023,义井镇龙王村委会(公交站),安徽省,合肥市,长丰县
皖小能汽车充电站(义井镇甄祠村),汽车服务;充电站;充电站,117.09035,32.29978,甄祠村委会义井乡,安徽省,合肥市,长丰县
皖小能汽车充电站(庄墓镇侯集村),汽车服务;充电站;充电站,117.11411,32.329105,庄墓镇侯集社区党群服务中心,安徽省,合肥市,长丰县
皖小能汽车充电站(义井镇大郢村),汽车服务;充电站;充电站,117.08972,32.269825,义井镇大郢村村民委员会,安徽省,合肥市,长丰县
皖小能汽车充电站(义井镇向东村),汽车服务;充电站;充电站,117.14625,32.280773,向东村村民委员会075乡道,安徽省,合肥市,长丰县
皖小能汽车充电站(义井镇杜岗村市集广场),汽车服务;充电站;充电站,117.05173,32.292324,义井镇杜岗村村委会,安徽省,合肥市,长丰县
皖小能汽车充电站(义井镇塘面村),汽车服务;充电站;充电站,117.05215,32.313576,义井镇塘面村村委会,安徽省,合肥市,长丰县
皖小能汽车充电站(义井镇黄巷村),汽车服务;充电站;充电站,117.07267,32.300056,义井镇黄巷村村委会,安徽省,合肥市,长丰县
皖小能汽车充电站(庄墓镇张圩村),汽车服务;充电站;充电站,117.07478,32.33671,庄墓镇张圩村退役军人事务部张圩村村委会,安徽省,合肥市,长丰县
皖小能汽车充电站(义井镇红桥村),汽车服务;充电站;充电站,117.076195,32.315304,红桥村村委会义井镇,安徽省,合肥市,长丰县
下塘镇双杰汽车充电站,汽车服务;充电站;充电站,117.230058,32.184062,合水路辅路双杰电气合肥有限公司地面停车场,安徽省,合肥市,长丰县
皖小能下塘智慧停车场汽车充电站,汽车服务;充电站;充电站,117.23637,32.156252,下塘支路2号地面停车场,安徽省,合肥市,长丰县
皖小能汽车充电站(下塘梧桐大道),汽车服务;充电站;充电站,117.244286,32.18016,皖能综合能源港下塘梧桐大道站建业大道与梧桐大道交口东北侧,安徽省,合肥市,长丰县
皖小能电动汽车快充站(下塘为民服务中心停车场站),汽车服务;充电站;充电站,117.21164,32.198106,交通街127号地面停车场,安徽省,合肥市,长丰县
易佳电汽车充电站(易佳电蓝鲤长丰慧鹏换电站),汽车服务;充电站;充电站,117.23132,32.18109,长丰能源综合改革创新试点展示中心北门(进门右转100米),安徽省,合肥市,长丰县
皖小能汽车充电站(下塘合水路公交停保场),汽车服务;充电站;充电站,117.21481,32.206852,下塘镇站东路长丰县下塘实验学校,安徽省,合肥市,长丰县
合肥充电长丰县下塘镇停车场充电站,汽车服务;充电站;充电站,117.215339,32.234263,新合水路下塘停车场,安徽省,合肥市,长丰县
云快充汽车充电站(双杰金店雅苑),汽车服务;充电站;充电站,117.226261,32.18158,下塘镇金店雅苑三期地下停车场,安徽省,合肥市,长丰县
皖小能汽车充电站(下塘镇小井村),汽车服务;充电站;充电站,117.22231,32.21178,下塘镇小井村村民委员会九久夕阳红小井老年公寓,安徽省,合肥市,长丰县
念湖中央公园电动汽车充电站,汽车服务;充电站;充电站,117.227488,32.193904,凤麟大道辅路与红枫路交叉口北180米,安徽省,合肥市,长丰县
皖小能汽车充电站(下塘镇钱集社区),汽车服务;充电站;充电站,117.1757,32.214783,钱集社区居委会下塘镇034乡道,安徽省,合肥市,长丰县
卓燕智行汽车充电站(四期洋房6栋南面),汽车服务;充电站;充电站,117.237885,32.18978,下塘镇孔雀城四期,安徽省,合肥市,长丰县
皖小能汽车充电站(陶楼镇杭岗社区),汽车服务;充电站;充电站,117.196175,32.161007,陶楼镇中共陶楼镇杭岗村总支委员会,安徽省,合肥市,长丰县
皖小能汽车充电站(下塘镇明华社区),汽车服务;充电站;充电站,117.17131,32.182953,明华社区党群服务中心015县道与075乡道交叉口东南150米曹户村村委会附近,安徽省,合肥市,长丰县
皖小能汽车充电站(下塘镇幸福社区),汽车服务;充电站;充电站,117.17683,32.235638,下塘镇幸福社区居委会,安徽省,合肥市,长丰县
皖小能汽车充电站(下塘镇北店社区),汽车服务;充电站;充电站,117.199615,32.22709,下塘镇北店村村民委员会,安徽省,合肥市,长丰县
皖小能汽车充电站(陶楼镇陈圩社区),汽车服务;充电站;充电站,117.171684,32.160175,陶楼镇陈圩社区退役军人服务管理站075乡道陈圩社区党群服务中心,安徽省,合肥市,长丰县
皖小能汽车充电站(下塘镇埠里社区),汽车服务;充电站;充电站,117.32092,32.16565,下塘镇好又多超市(下塘镇埠里农贸市场店)下塘镇埠里农贸市场,安徽省,合肥市,长丰县
皖小能汽车充电站(下塘镇顾圩村),汽车服务;充电站;充电站,117.26032,32.20044,下塘镇顾圩村村委会,安徽省,合肥市,长丰县
皖小能汽车充电站(造甲乡凤群社区),汽车服务;充电站;充电站,117.32252,32.198627,造甲乡凤群社区居委会,安徽省,合肥市,长丰县
皖小能汽车充电站(下塘镇埠南社区),汽车服务;充电站;充电站,117.327675,32.146206,下塘镇埠南社区居民委员会,安徽省,合肥市,长丰县
皖小能汽车充电站(造甲乡双河新村),汽车服务;充电站;充电站,117.29463,32.234844,造甲乡双河社区退役军人服务站长丰县造甲乡双河村民委员会,安徽省,合肥市,长丰县
皖小能汽车充电站(下塘镇陶新村),汽车服务;充电站;充电站,117.28557,32.190083,下塘镇陶新村党群服务中心长丰县下塘镇陶新村民委员会,安徽省,合肥市,长丰县
皖小能汽车充电站(造甲乡双丰社区),汽车服务;充电站;充电站,117.32266,32.22284,造甲乡双丰社区退役军人服务站双丰社区党群服务中心1楼,安徽省,合肥市,长丰县
皖小能汽车充电站(朱巷镇前黄村),汽车服务;充电站;充电站,117.26913,32.332226,朱巷镇前黄村村委会朱巷镇前黄村党群服务中心,安徽省,合肥市,长丰县
皖小能汽车充电站(造甲乡陈刘社区),汽车服务;充电站;充电站,117.30355,32.28562,造甲乡陈刘社区居委会,安徽省,合肥市,长丰县
皖小能汽车充电站(造甲乡许圩村),汽车服务;充电站;充电站,117.32834,32.263233,造甲乡许圩村村委会中共造甲乡许圩村总支委员会,安徽省,合肥市,长丰县
皖小能汽车充电站(造甲乡六方村),汽车服务;充电站;充电站,117.30419,32.252483,造甲乡六方村委会,安徽省,合肥市,长丰县
皖小能汽车充电站(朱巷镇柘塘村),汽车服务;充电站;充电站,117.27349,32.32567,朱巷镇柘塘社区退役军人服务管理站柘塘村村委会,安徽省,合肥市,长丰县
皖小能汽车充电站(造甲乡双河月亮湾),汽车服务;充电站;充电站,117.28111,32.24022,双河月亮湾生态农庄造甲乡双河村红庙组1号,安徽省,合肥市,长丰县
皖小能汽车充电站(朱巷镇东许村),汽车服务;充电站;充电站,117.29918,32.32053,朱巷镇长丰县东许村村民委员会,安徽省,合肥市,长丰县
皖小能汽车充电站(朱巷镇七里村),汽车服务;充电站;充电站,117.26083,32.30168,朱巷镇七里村党群服务中心朱巷镇七里村卫生室西侧,安徽省,合肥市,长丰县
汽车充电站(皖尚充长丰县朱巷镇前黄村站),汽车服务;充电站;充电站,117.268426,32.33256,227省道,安徽省,合肥市,长丰县
皖小能汽车充电站(造甲乡宋岗社区),汽车服务;充电站;充电站,117.274025,32.27795,造甲乡宋岗社区居委会,安徽省,合肥市,长丰县
皖小能汽车充电站(朱巷镇停车场),汽车服务;充电站;充电站,117.218334,32.32436,朱巷镇政府对面停车场,安徽省,合肥市,长丰县
云快充汽车充电站(安徽龙磐充电站),汽车服务;充电站;充电站,117.218747,32.313697,朱巷中学东X008与陈塘路交叉口,安徽省,合肥市,长丰县
皖小能汽车充电站(下塘镇陶湖社区),汽车服务;充电站;充电站,117.212008,32.254093,长丰农村商业银行(陶湖支行)下塘镇交通街,安徽省,合肥市,长丰县
皖小能汽车充电站(皖小能朱巷镇滨水家园),汽车服务;充电站;充电站,117.22299,32.32025,中国中铁四局集团长丰县朱巷镇安置房(滨水家园)项目经理部朱巷东路,安徽省,合肥市,长丰县
皖小能汽车充电站(朱巷镇陈庄村),汽车服务;充电站;充电站,117.23409,32.31956,朱巷镇陈庄村退役军人服务站朱巷镇陈庄村委会,安徽省,合肥市,长丰县
皖小能汽车充电站(下塘镇赵店社区),汽车服务;充电站;充电站,117.186745,32.25631,下塘镇赵店社区赵店社区居委会,安徽省,合肥市,长丰县
皖小能汽车充电站(朱巷镇油坊社区),汽车服务;充电站;充电站,117.18765,32.312466,朱巷镇油坊社区居委会,安徽省,合肥市,长丰县
皖小能汽车充电站(下塘镇万岗社区),汽车服务;充电站;充电站,117.21337,32.281124,万岗社区退役军人服务管理站069乡道,安徽省,合肥市,长丰县
皖小能汽车充电站(朱巷镇镇北村),汽车服务;充电站;充电站,117.21536,32.33343,朱巷镇镇北村委会,安徽省,合肥市,长丰县
皖小能汽车充电站(义井镇车王村),汽车服务;充电站;充电站,117.17288,32.291336,义井镇车王集村史馆车王村村委会,安徽省,合肥市,长丰县
云快充汽车充电站(不对外开放),汽车服务;充电站;专用充电站,117.218616,32.323393,代集路与振兴路交叉口西北100米,安徽省,合肥市,长丰县
皖小能汽车充电站(朱巷镇耿岗村),汽车服务;充电站;充电站,117.22489,32.30644,耿岗村村委会安徽省合肥市长丰县朱巷镇,安徽省,合肥市,长丰县
皖小能汽车充电站(朱巷镇梁山村),汽车服务;充电站;充电站,117.19568,32.326794,朱巷镇梁山村村民委员会,安徽省,合肥市,长丰县
皖小能汽车充电站(下塘镇安费塘社区),汽车服务;充电站;充电站,117.2467,32.277084,下塘镇安费塘社区居务监督委员会长丰县下塘镇安费塘社区居民委员会,安徽省,合肥市,长丰县
皖小能汽车充电站(左店镇政府),汽车服务;充电站;充电站,117.236984,32.40731,左店镇人民政府沛庄路西50米,安徽省,合肥市,长丰县
皖小能汽车充电站(左店镇永丰社区),汽车服务;充电站;充电站,117.237564,32.389748,左店镇永丰社区居委会左店镇,安徽省,合肥市,长丰县
皖小能汽车充电站(左店镇左店社区安置房),汽车服务;充电站;充电站,117.235596,32.40861,左店镇左店社区安置房地面停车场,安徽省,合肥市,长丰县
皖小能汽车充电站(左店镇左店社区张岗电商园),汽车服务;充电站;充电站,117.22615,32.432873,左店镇左店社区张岗电商园停车场,安徽省,合肥市,长丰县
皖小能汽车充电站(左店镇梁曹社区),汽车服务;充电站;充电站,117.18872,32.393127,左店镇梁曹村村委会,安徽省,合肥市,长丰县
皖小能汽车充电站(左店镇淮光社区),汽车服务;充电站;充电站,117.24813,32.42641,左店镇淮光村村委会,安徽省,合肥市,长丰县
皖小能汽车充电站(朱巷镇梁圩村),汽车服务;充电站;充电站,117.23092,32.368076,朱巷镇合水路梁圩村党群服务中心,安徽省,合肥市,长丰县
皖小能汽车充电站(左店镇代集村),汽车服务;充电站;充电站,117.20109,32.408394,左店镇代集村村委会,安徽省,合肥市,长丰县
皖小能汽车充电站(左店镇梁埝村),汽车服务;充电站;充电站,117.19292,32.365173,左店镇梁埝村村委会,安徽省,合肥市,长丰县
皖小能汽车充电站(罗塘乡黄岗村),汽车服务;充电站;充电站,117.1732,32.428207,罗塘乡黄岗村村委会,安徽省,合肥市,长丰县
理想汽车充电站(理想5C超充站滁新高速杜集服务区新蔡方向),汽车服务;充电站;充电站,117.30231,32.398647,杜集服务区,安徽省,合肥市,长丰县
国家电网汽车充电站(滁新高速杜集服务区充电站新蔡方向),汽车服务;充电站;充电站,117.30286,32.39858,左店镇杜集服务区,安徽省,合肥市,长丰县
理想汽车充电站(理想5C超充站滁新高速杜集服务区滁州方向),汽车服务;充电站;充电站,117.30153,32.396095,杜集服务区,安徽省,合肥市,长丰县
国家电网汽车充电站(滁新高速杜集服务区充电站滁州方向),汽车服务;充电站;充电站,117.300892,32.396261,滁新高速杜集服务区滁州方向,安徽省,合肥市,长丰县
国家电网汽车充电站(滁新高速杜集服务区充电站滁州方向),汽车服务;充电站;充电站,117.30064,32.39617,左店镇杜集服务区(滁州方向)地面停车场,安徽省,合肥市,长丰县
皖小能汽车充电站(杜集镇沛河社区),汽车服务;充电站;充电站,117.312121,32.415797,杜集镇沛河社区菜市场,安徽省,合肥市,长丰县
皖小能汽车充电站(朱巷镇庞孤堆社区),汽车服务;充电站;充电站,117.255775,32.341152,朱巷镇庞孤堆社区居民委员会,安徽省,合肥市,长丰县
皖小能汽车充电站(杜集镇胜利村),汽车服务;充电站;充电站,117.30905,32.384296,杜集镇胜利村党群服务中心,安徽省,合肥市,长丰县
皖小能汽车充电站(杜集镇团结村),汽车服务;充电站;充电站,117.326324,32.36089,杜集镇322省道,安徽省,合肥市,长丰县
国家电网汽车充电站(滁新高速杜集服务区充电站新蔡方向2),汽车服务;充电站;充电站,117.303052,32.398051,滁新高速杜集服务区新蔡方向,安徽省,合肥市,长丰县
皖小能汽车充电站(朱巷镇羊荒村),汽车服务;充电站;充电站,117.29386,32.35396,朱巷镇羊荒村退役军人服务站羊荒村村民委员会,安徽省,合肥市,长丰县
中国石化汽车充电站(水家湖充电站),汽车服务;充电站;充电站,117.17148,32.46813,中国石化水家湖加油站,安徽省,合肥市,长丰县
皖小能汽车充电站(水湖镇李岗村),汽车服务;充电站;充电站,117.173065,32.441628,水湖镇李岗村村民委员会,安徽省,合肥市,长丰县
皖小能汽车充电站(水湖镇李杨村),汽车服务;充电站;充电站,117.207405,32.455612,水湖镇李杨村村委会,安徽省,合肥市,长丰县
皖小能汽车充电站(水湖镇黄浒塘社区),汽车服务;充电站;充电站,117.17025,32.49228,黄浒塘社区居民委员会金秋花园东北门旁,安徽省,合肥市,长丰县
皖小能汽车充电站(水湖镇拐王村),汽车服务;充电站;充电站,117.18273,32.523415,水湖镇拐王村委会,安徽省,合肥市,长丰县
皖小能汽车充电站(水湖镇南孔村),汽车服务;充电站;充电站,117.187584,32.491524,南孔村村委会水湖镇,安徽省,合肥市,长丰县
皖小能汽车充电站(水湖镇大周村),汽车服务;充电站;充电站,117.19591,32.497192,水湖镇大周(公交站)长丰县水湖镇大周村村民委员会,安徽省,合肥市,长丰县
皖小能汽车充电站(水湖镇颜湖村),汽车服务;充电站;充电站,117.19351,32.478565,水湖镇颜湖社区服务中心,安徽省,合肥市,长丰县
云快充汽车充电站(丰行汽车)(暂停营业),汽车服务;充电站;充电站,117.171034,32.492544,水九路与012县道交叉口东南140米,安徽省,合肥市,长丰县
皖小能汽车充电站(庄墓镇杨湾村),汽车服务;充电站;充电站,117.05238,32.354767,庄墓镇杨湾村退役军人服务管理站,安徽省,合肥市,长丰县
皖小能汽车充电站(罗塘乡梅元村),汽车服务;充电站;充电站,117.025375,32.402576,罗塘乡梅元村退役军人服务站029乡道,安徽省,合肥市,长丰县
皖小能汽车充电站(罗塘乡徐庙社区),汽车服务;充电站;充电站,117.08298,32.431255,罗塘乡徐庙社区居委会,安徽省,合肥市,长丰县
皖小能汽车充电站(庄墓镇徐岗村),汽车服务;充电站;充电站,117.04987,32.34041,庄墓镇徐岗村村民委员会,安徽省,合肥市,长丰县
皖小能汽车充电站(庄墓镇李庄村),汽车服务;充电站;充电站,117.074036,32.35214,庄墓镇李庄村村委会,安徽省,合肥市,长丰县
皖小能汽车充电站(罗塘乡禹庙村),汽车服务;充电站;充电站,117.08016,32.390884,罗塘乡禹庙村村民委员会,安徽省,合肥市,长丰县
皖小能汽车充电站(罗塘乡樊祠村),汽车服务;充电站;充电站,117.06219,32.39307,罗塘乡樊祠村樊祠村村委会,安徽省,合肥市,长丰县
皖小能汽车充电站(罗塘乡叶集村),汽车服务;充电站;充电站,117.07097,32.38323,罗塘乡叶集村退役军人服务站026乡道叶集村村民委员会,安徽省,合肥市,长丰县
皖小能汽车充电站(罗塘乡综合文化广场),汽车服务;充电站;充电站,117.142544,32.387777,罗塘乡综合文化站罗南路与009县道交叉口东60米,安徽省,合肥市,长丰县
云快充汽车充电站(合肥罗塘乡电站),汽车服务;充电站;充电站,117.122299,32.365502,合肥强宏农资公司东100米(水庄路),安徽省,合肥市,长丰县
皖小能汽车充电站(庄墓镇庄王村),汽车服务;充电站;充电站,117.124466,32.352478,庄墓镇庄王社区退役军人服务站庄墓镇庄王社区居民委员会,安徽省,合肥市,长丰县
皖小能汽车充电站(庄墓镇庄墓社区),汽车服务;充电站;充电站,117.12182,32.340996,庄墓镇庄墓社区委庄大路与206国道交叉口西320米,安徽省,合肥市,长丰县
皖小能汽车充电站(罗塘乡庄岗村),汽车服务;充电站;充电站,117.11546,32.37511,罗塘乡庄岗村村民委员会,安徽省,合肥市,长丰县
皖小能汽车充电站(庄墓镇金桥社区),汽车服务;充电站;充电站,117.09787,32.342297,庄墓镇金桥社区退役军人服务站庄大路金桥社区居民委员会,安徽省,合肥市,长丰县
皖小能汽车充电站(罗塘乡双合社区),汽车服务;充电站;充电站,117.12396,32.36058,罗塘乡双合社区居民委员会,安徽省,合肥市,长丰县
皖小能汽车充电站(罗塘乡张岗村),汽车服务;充电站;充电站,117.09357,32.419605,罗塘乡人社社保服务窗口,安徽省,合肥市,长丰县
皖小能汽车充电站(庄墓镇枣林村),汽车服务;充电站;充电站,117.092186,32.35239,庄墓镇枣林社区居民委员会,安徽省,合肥市,长丰县
皖小能汽车充电站(罗塘乡鲁周村),汽车服务;充电站;充电站,117.16663,32.408615,罗塘乡鲁周村退役军人服务站鲁周村村民委员会,安徽省,合肥市,长丰县
皖小能汽车充电站(罗塘乡双门村),汽车服务;充电站;充电站,117.12534,32.392315,罗塘乡双门村村民委员会罗塘乡,安徽省,合肥市,长丰县
皖小能汽车充电站(罗塘乡上拐村),汽车服务;充电站;充电站,117.1043,32.394844,罗塘乡上拐村村委会,安徽省,合肥市,长丰县
皖小能汽车充电站(罗塘乡朱桥村),汽车服务;充电站;充电站,117.1295,32.41671,罗塘乡朱桥村退役军人服务管理站朱桥小学,安徽省,合肥市,长丰县
皖小能汽车充电站(水湖镇李拐村),汽车服务;充电站;充电站,117.13399,32.43383,水湖镇李拐小学长丰县水家湖镇李拐村委会,安徽省,合肥市,长丰县
皖小能汽车充电站(罗塘乡拐集村),汽车服务;充电站;充电站,117.10354,32.410877,罗塘乡拐集村村委会,安徽省,合肥市,长丰县
皖小能汽车充电站(庄墓镇薛桥村),汽车服务;充电站;充电站,117.10905,32.35245,薛桥村村民委员会,安徽省,合肥市,长丰县
驴充充汽车充电站(长淮快充充电站),汽车服务;充电站;充电站,117.067743,32.457612,G206(合淮路)安徽恒丰水泥有限公司,安徽省,合肥市,长丰县
云快充汽车充电站(能量驰罗塘红旗超市充电站),汽车服务;充电站;充电站,117.070484,32.453691,罗塘乡206国道与029乡道交叉口东20米,安徽省,合肥市,长丰县
皖小能汽车充电站(罗塘乡甲道社区),汽车服务;充电站;充电站,117.06979,32.451694,罗塘乡甲道社区退役军人服务管理站,安徽省,合肥市,长丰县
皖小能汽车充电站(罗塘乡邵集社区),汽车服务;充电站;充电站,117.063896,32.443832,罗塘乡邵集社区支部委员会邵集社区居委会,安徽省,合肥市,长丰县
皖小能汽车充电站(水湖镇兴隆村),汽车服务;充电站;充电站,117.08771,32.490307,水湖镇湖北三宁化工股份有限公司兴隆村村民委员会,安徽省,合肥市,长丰县
理想汽车充电站(理想5C超充站京台高速丰乐服务区台北方向),汽车服务;充电站;充电站,117.18418,31.594978,丰乐服务区,安徽省,合肥市,肥西县
理想汽车充电站(理想5C超充站京台高速丰乐服务区北京方向),汽车服务;充电站;充电站,117.186554,31.593277,丰乐服务区,安徽省,合肥市,肥西县
国家电网汽车充电站(京台高速丰乐服务区充电站北京方向),汽车服务;充电站;充电站,117.18596,31.593133,京台高速丰乐服务区北京方向,安徽省,合肥市,肥西县
蔚来超充站(G3京台高速丰乐服务区北京方向),汽车服务;充电站;充电站,117.186463,31.593073,丰乐服务区,安徽省,合肥市,肥西县
丰乐服务区国家电网汽车充电站,汽车服务;充电站;充电站,117.186618,31.592935,丰乐镇丰乐服务区地面停车场,安徽省,合肥市,肥西县
易佳电汽车充电站(易佳电丰乐高速服务区充电站),汽车服务;充电站;充电站,117.18691,31.593,丰乐服务区,安徽省,合肥市,肥西县
蔚来能源汽车充电站(北京方向G3京台高速丰乐服务区),汽车服务;充电站;充电站,117.18672,31.592966,丰乐服务区东南50米(京台高速公路东),安徽省,合肥市,肥西县
蔚享天成汽车充电站(凤落苑),汽车服务;充电站;充电站,117.17745,31.561102,241省道与严丰路交叉口西380米,安徽省,合肥市,肥西县
合肥充电汽车充电站丰乐镇三里生态园停车场,汽车服务;充电站;充电站,117.176887,31.557023,严丰路111号,安徽省,合肥市,肥西县
皖小能汽车充电站(肥西县丰乐镇肖家桥村村委会慢充),汽车服务;充电站;充电站,117.1721,31.552477,肖家桥村村民委员会038县道与241省道交叉口西南260米,安徽省,合肥市,肥西县
皖小能汽车充电站(肥西县丰乐镇丰乐社区党群服务中心慢充),汽车服务;充电站;充电站,117.180435,31.558205,丰乐镇丰乐社区党群服务中心肥西县丰乐镇丰乐社区居委会,安徽省,合肥市,肥西县
皖小能汽车充电站(肥西县三河镇九联村村民委员会慢充),汽车服务;充电站;充电站,117.239334,31.571295,三河镇九联村村民委员会三河镇九联村村部,安徽省,合肥市,肥西县
皖小能汽车充电站(肥西县三河镇河口家园南门慢充),汽车服务;充电站;充电站,117.243774,31.550634,三河镇河口家园南门,安徽省,合肥市,肥西县
皖小能汽车充电站(肥西县严店镇东南村村委会慢充),汽车服务;充电站;充电站,117.21336,31.584436,东南村村委会严店乡东南村,安徽省,合肥市,肥西县
皖小能汽车充电站(肥西县严店镇苏小小学停车场慢充),汽车服务;充电站;充电站,117.22632,31.595984,苏小小学严店乡上派镇苏小社区,安徽省,合肥市,肥西县
皖小能汽车充电站(肥西县严店镇大丰村慢充),汽车服务;充电站;充电站,117.24976,31.639318,大丰村村民委员会富贵再生资源有限公司东北侧160米,安徽省,合肥市,肥西县
世动云充汽车充电站(肥西县严店镇充电站),汽车服务;充电站;充电站,117.209118,31.633413,严店镇三河路严店菜市场,安徽省,合肥市,肥西县
蔚来超充站(G3京台高速丰乐服务区台北方向),汽车服务;充电站;充电站,117.184233,31.5953,G3丰乐服务区,安徽省,合肥市,肥西县
国家电网汽车充电站(京台高速丰乐服务区充电站台北方向),汽车服务;充电站;充电站,117.183536,31.595231,丰乐服务区地面停车场,安徽省,合肥市,肥西县
蔚来能源汽车充电站(台北方向G3京台高速丰乐服务区),汽车服务;充电站;充电站,117.18437,31.595293,丰乐服务区,安徽省,合肥市,肥西县
皖小能汽车充电站(肥西县丰乐镇双枣新村慢充),汽车服务;充电站;充电站,117.19246,31.603394,丰乐镇双枣新村B6栋,安徽省,合肥市,肥西县
皖小能汽车充电站(肥西县丰乐镇铁佛村村委会慢充),汽车服务;充电站;充电站,117.1764,31.598478,铁佛村村民委员会人社民政社保服务窗口(铁佛村党群服务中心)东侧,安徽省,合肥市,肥西县
易佳电汽车充电站(易佳电京台高速丰乐服务区充电站台北方向)(暂停营业),汽车服务;充电站;充电站,117.18353,31.595358,京台高速丰乐服务区充电站(台北方向),安徽省,合肥市,肥西县
充小兽汽车充电站(首创奥特莱斯站),汽车服务;充电站;充电站,117.29054,31.691921,徽商路与珠江路交汇处东北角,安徽省,合肥市,包河区
中国石化汽车充电站(蓬莱路充电站),汽车服务;充电站;充电站,117.193115,31.691379,双塔镇东申底村,安徽省,合肥市,肥西县
均悦充汽车充电站(安徽肥西县经济开发区),汽车服务;充电站;充电站,117.195465,31.68553,肥西县经济开发区蓬莱路和四合路交口东南角,安徽省,合肥市,肥西县
蔚享天成汽车充电站(江汽物流有限公司),汽车服务;充电站;充电站,117.20015,31.692335,浮莲路与北张路交口江汽物流公司,安徽省,合肥市,肥西县
云快充汽车充电站(合肥文德汽车),汽车服务;充电站;充电站,117.197787,31.690921,浮莲路与北张路交口西南角,安徽省,合肥市,肥西县
皖小能汽车充电站(肥西县上派镇佛寺村村委会慢充),汽车服务;充电站;充电站,117.18904,31.665676,佛寺村村委会上派镇佛寺村,安徽省,合肥市,肥西县
皖小能汽车充电站(肥西县上派镇金岗村村委会慢充),汽车服务;充电站;充电站,117.19099,31.654543,上派镇金岗村村民委员会G330(合铜公路),安徽省,合肥市,肥西县
皖小能汽车充电站(肥西县严店镇油坊村村委会慢充),汽车服务;充电站;充电站,117.20284,31.646967,油坊村村委会040县道东50米,安徽省,合肥市,肥西县
和行新港基地汽车充电站,汽车服务;充电站;充电站,117.218691,31.680327,莲花路5188号,安徽省,合肥市,肥西县
皖小能汽车充电站(肥西县上派镇中派社区居委会慢充),汽车服务;充电站;充电站,117.23115,31.66876,上派镇中派社区居委会,安徽省,合肥市,肥西县
皖小能汽车充电站(肥西县上派镇前进村村委会慢充),汽车服务;充电站;充电站,117.21379,31.664774,前进村村委会上派镇前进村,安徽省,合肥市,肥西县
星星充电汽车充电站(振规金属北区),汽车服务;充电站;充电站,117.247388,31.725399,锦绣社区合肥振规金属有限公司门口地面停车场,安徽省,合肥市,蜀山区
中国石化汽车充电站(紫石路充电站),汽车服务;充电站;充电站,117.217959,31.718444,临湖社区管理管委会中国石化紫石路加油站,安徽省,合肥市,蜀山区
星星充电汽车充电站(昌和检测超级快充站),汽车服务;充电站;充电站,117.230552,31.738108,蜀山区经开区莲花路昌和检测站院内,安徽省,合肥市,蜀山区
依威能源汽车充电站(南郡明珠),汽车服务;充电站;充电站,117.243151,31.739531,紫云路与天都路交汇处南郡明珠,安徽省,合肥市,蜀山区
白龙王庙充电桩,汽车服务;充电站;充电站,117.249711,31.706202,临湖社区宿松路与云海路交叉路口白龙王庙门口,安徽省,合肥市,蜀山区
易佳电汽车充电站(易佳电大众汽车充电站),汽车服务;充电站;充电站,117.239494,31.702023,珠江路,安徽省,合肥市,蜀山区
蔚来能源目的地充电站(内部使用合肥延锋汽车),汽车服务;充电站;充电站,117.22108,31.71161,海恒社区管理委员会经济开发区云谷路与青鸾路交口,安徽省,合肥市,肥西县
小桔充电汽车充电站(幸福智充肥西仪武路),汽车服务;充电站;充电站,117.184762,31.713594,上派镇仪武路与江淮大道交口向南约150米肥西县人社局对面,安徽省,合肥市,肥西县
特来电汽车充电站(肥西新城家园充电站),汽车服务;充电站;充电站,117.17795,31.736161,上派镇金寨南路旁地面停车场(新城家园后门),安徽省,合肥市,肥西县
国家电网汽车充电站(安徽省合肥市肥西县金寨南路金宇天地城停车场充电站),汽车服务;充电站;充电站,117.172731,31.731524,金寨南路和望水路交汇处东南侧,安徽省,合肥市,肥西县
云快充汽车充电站(灯塔家园),汽车服务;充电站;充电站,117.176656,31.708514,上派镇灯塔家园地面停车场,安徽省,合肥市,肥西县
易佳电汽车充电站(易佳电香馨创谷充电站),汽车服务;充电站;充电站,117.20333,31.743067,"汤口2766号,香馨创谷园地下停车场D区",安徽省,合肥市,蜀山区
特来电汽车充电站(肥西县金星和园充电站),汽车服务;充电站;充电站,117.170306,31.741144,上派镇金星和园四期地面停车场,安徽省,合肥市,肥西县
国家电网汽车充电站(安徽省合肥市肥西县金宇天地城),汽车服务;充电站;充电站,117.172851,31.730226,上派镇锅贴小二(金宇天地城店)金宇・天地城地面停车场,安徽省,合肥市,肥西县
云快充汽车充电站(肥西翡翠蓝湾和园),汽车服务;充电站;充电站,117.170918,31.74272,上派镇翡翠路与云谷路交叉口(翡翠蓝湾和园西门),安徽省,合肥市,肥西县
云快充汽车充电站(威尔科技),汽车服务;充电站;充电站,117.180716,31.729533,合经区云谷路与青鸾路交口向西200米,安徽省,合肥市,肥西县
蔚享天成汽车充电站(北城璞园),汽车服务;充电站;充电站,117.18714,31.703209,丰县北城璞园,安徽省,合肥市,肥西县
小桔充电汽车充电站(泊充合肥光明观澜小桔),汽车服务;充电站;充电站,117.175076,31.737177,上派镇云谷路光明观澜学府,安徽省,合肥市,肥西县
小桔充电汽车充电站(肥西县水晶城慢充站),汽车服务;充电站;充电站,117.17136,31.717822,中街・水晶城,安徽省,合肥市,肥西县
合肥市肥西县潭冲河湿地公园汽车充电站,汽车服务;充电站;充电站,117.188954,31.709542,潭冲河湿地公园2号停车场,安徽省,合肥市,肥西县
合肥充电肥西县南郢社区汽车充电站,汽车服务;充电站;充电站,117.183092,31.727377,青龙潭路南郢小区,安徽省,合肥市,肥西县
蔚享天成汽车充电站(肥西县安徽海龙建筑工业有限公司),汽车服务;充电站;充电站,117.18184,31.72135,安徽海龙建筑工业有限公司(青龙潭路东),安徽省,合肥市,肥西县
特来电汽车充电站(董岗街道停车场充电站),汽车服务;充电站;充电站,117.098516,31.661019,花岗镇荟萃园,安徽省,合肥市,肥西县
中充服汽车充电站(中充服祥源花世界服务站),汽车服务;充电站;充电站,117.127266,31.6894,上派镇祥源花世界南停车场,安徽省,合肥市,肥西县
易佳电汽车充电站(易佳电宏晟荟萃园充电站),汽车服务;充电站;充电站,117.101135,31.662722,万涧路,安徽省,合肥市,肥西县
云快充汽车充电站(董岗街道停车场),汽车服务;充电站;充电站,117.098183,31.660371,花岗镇董岗社区雷阳路与万洞路交口东北角停车场,安徽省,合肥市,肥西县
国家电网汽车充电站(安徽省合肥市肥西县花岗有序交流充电站),汽车服务;充电站;充电站,117.096759,31.663281,花岗供电所充电站停车场,安徽省,合肥市,肥西县
云快充汽车充电站(能量驰肥西人民法院审判法庭地面停车场),汽车服务;充电站;充电站,117.127103,31.666214,花岗镇舒王台路与五显路交口,安徽省,合肥市,肥西县
皖小能汽车充电站(肥西县花岗镇蔡冲村村委会慢充),汽车服务;充电站;充电站,117.11159,31.678343,蔡冲村村委会金寨南路与龙舒路交叉口西南140米,安徽省,合肥市,肥西县
云快充汽车充电站(能量驰肥西人民法院审判法庭),汽车服务;充电站;充电站,117.127111,31.666216,花岗镇舒王台路与五显路交口,安徽省,合肥市,肥西县
皖小能汽车充电站(肥西县上派镇大墙村村委会慢充),汽车服务;充电站;充电站,117.1513,31.649368,上派镇大墙村村民委员会上派镇大墙村,安徽省,合肥市,肥西县
中国石化汽车充电站(杭清充电站),汽车服务;充电站;充电站,117.106259,31.734607,中国石化杭清加油站,安徽省,合肥市,肥西县
皖小能汽车充电站(肥西县上派镇三岗村村委会慢充),汽车服务;充电站;充电站,117.11977,31.711441,上派镇三岗村委员会三岗路与070乡道交叉口东220米,安徽省,合肥市,肥西县
汽车充电站(开迈斯充电站合肥市巢湖碧桂园凤凰酒店直流站),汽车服务;充电站;充电站,117.823634,31.577376,碧桂园凤凰酒店停车场,安徽省,合肥市,巢湖市
汽车充电站(慢充站),汽车服务;充电站;充电站,117.824521,31.577731,临湖路67-43号,安徽省,合肥市,巢湖市
汽车充电站(巢湖市翡翠观澜),汽车服务;充电站;充电站,117.831727,31.572732,天河街道碧桂园・翡翠观澜1座,安徽省,合肥市,巢湖市
中国石化汽车充电站(裕溪路充电站),汽车服务;充电站;充电站,117.88781,31.589453,亚父街道中国石化裕溪路加油站,安徽省,合肥市,巢湖市
达克云汽车充电站(公牛银屏镇快充站),汽车服务;充电站;充电站,117.854113,31.553891,[],安徽省,合肥市,巢湖市
蔚享天成汽车充电站(皖泵新村充电桩),汽车服务;充电站;充电站,117.890868,31.593032,皖泵新村B区西北侧,安徽省,合肥市,巢湖市
能效邻里共享汽车充电站(集洁浩),汽车服务;充电站;充电站,117.88816,31.564833,华松修理厂,安徽省,合肥市,巢湖市
云快充汽车充电站(科讯电驰合肥巢湖万达充电站),汽车服务;充电站;充电站,117.884419,31.612674,东塘路80号合肥巢湖万达广场,安徽省,合肥市,巢湖市
中国石化汽车充电站(规划局外院充电站),汽车服务;充电站;充电站,117.88138,31.601822,巢湖事业单位离退休人员服务管理中心,安徽省,合肥市,巢湖市
中国石化汽车充电站(中心充电站),汽车服务;充电站;充电站,117.886101,31.617902,凤凰山街道中国石化中心加油站,安徽省,合肥市,巢湖市
中国石化汽车充电站(华松充电站),汽车服务;充电站;充电站,117.87638,31.597862,亚父街道人民路312号中国石化华松加油站,安徽省,合肥市,巢湖市
云快充汽车充电站(合肥凤凰之家),汽车服务;充电站;充电站,117.867898,31.619885,凤凰山路与黎明路交口,安徽省,合肥市,巢湖市
世动云充合肥长江东路充电站,汽车服务;充电站;充电站,117.887529,31.610679,凤凰山街道长江东路56-1号金鹏大厦,安徽省,合肥市,巢湖市
中国石化汽车充电站(红府超市充电站),汽车服务;充电站;充电站,117.892673,31.631484,半汤街道山冲路嶂山小区,安徽省,合肥市,巢湖市
中国石化汽车充电站(长江西路充电站),汽车服务;充电站;充电站,117.85917,31.618944,凤凰山街道长江西路143号中国石化长江西路加油站,安徽省,合肥市,巢湖市
云快充汽车充电站(巢湖黄麓站),汽车服务;充电站;充电站,117.8618,31.598628,黄麓公交站,安徽省,合肥市,巢湖市
合肥充电巢湖市东塘路停车场汽车充电站,汽车服务;充电站;充电站,117.878604,31.595728,汇商小额贷款公司隔壁,安徽省,合肥市,巢湖市
汽车充电站(金鑫站),汽车服务;充电站;充电站,117.88225,31.600858,健康东路132号,安徽省,合肥市,巢湖市
云快充汽车充电站(橙子时尚酒店),汽车服务;充电站;充电站,117.888747,31.610657,世纪大道与太湖山路交叉口华亚锦城综合楼,安徽省,合肥市,巢湖市
驴充充汽车充电站(金科世家内安广超市车站店东145米),汽车服务;充电站;充电站,117.89198,31.611948,太湖山路南侧白鹭里酒店,安徽省,合肥市,巢湖市
新电途汽车充电站(凤凰名城一期充电站),汽车服务;充电站;充电站,117.88819,31.618473,凤凰山街道响旺龙虾城(凤凰名城一期店)凤凰名城一期,安徽省,合肥市,巢湖市
新电途汽车充电站(凤凰名城二期充电站),汽车服务;充电站;充电站,117.89028,31.619068,凤凰山街道凤凰名城,安徽省,合肥市,巢湖市
云快充汽车充电站(媛怡月子中心),汽车服务;充电站;充电站,117.890272,31.622087,山路与半汤路交叉口(媛怡月子中心),安徽省,合肥市,巢湖市
新电途汽车充电站(凤凰名城三期充电站),汽车服务;充电站;充电站,117.88908,31.619663,凤凰山路凤凰名城三期,安徽省,合肥市,巢湖市
星星充电汽车充电站(星星充电-巢湖团结路耳街停车场超充站),汽车服务;充电站;充电站,117.872198,31.597127,耳街团结路停车场内,安徽省,合肥市,巢湖市
小桔充电汽车充电站(双杰合肥巢湖),汽车服务;充电站;充电站,117.818294,31.627787,新奥CNG加气站,安徽省,合肥市,巢湖市
巢湖市公交电动车充电站(公交专用),汽车服务;充电站;充电站,117.84912,31.601629,湖光路与东风西路交口,安徽省,合肥市,巢湖市
汽车充电站云快充巢电家园光伏站(内部专用),汽车服务;充电站;专用充电站,117.833141,31.643545,云华大道与石龙山路交叉口东南300米,安徽省,合肥市,巢湖市
中国石化汽车充电站(清怡充电站),汽车服务;充电站;充电站,117.912851,31.567997,亚父街道中国石化清怡加油站,安徽省,合肥市,巢湖市
中国石化汽车充电站(大湾路充电站),汽车服务;充电站;充电站,117.895096,31.558367,亚父街道中国石化大湾路加油站,安徽省,合肥市,巢湖市
云快充汽车充电站(安徽旗裕资产运营管理有限公司),汽车服务;充电站;充电站,117.906226,31.575698,居巢经济开发区前进路与四桥路交叉口,安徽省,合肥市,巢湖市
中国石化汽车充电站(世纪充电站),汽车服务;充电站;充电站,117.893457,31.606358,长江东路45号,安徽省,合肥市,巢湖市
国家电网汽车充电站(安徽省合肥市巢湖市经济开发区建设发展局停车场充电站),汽车服务;充电站;充电站,117.89523,31.625164,华阳路与半汤大道交叉口东南100米,安徽省,合肥市,巢湖市
易佳电汽车充电站(易佳电蓝鲤巢湖慧鹏换电站),汽车服务;充电站;充电站,117.91628,31.643164,慧鹏充换电站(巢湖半汤站),安徽省,合肥市,巢湖市
中国石化汽车充电站(半汤社区充电站),汽车服务;充电站;充电站,117.9267,31.641424,半汤街道半汤社区居委会巢湖学院综合服务区住宅楼,安徽省,合肥市,巢湖市
中国石化汽车充电站(嶂社区服务中心充电站),汽车服务;充电站;充电站,117.909254,31.628385,半汤街道安徽巢湖经济开发区老年大学嶂华庭小区,安徽省,合肥市,巢湖市
达克云汽车充电站(小豹充充远洲豪廷大酒店充电站),汽车服务;充电站;充电站,117.903525,31.616774,金湖大道与姥山路交汇处,安徽省,合肥市,巢湖市
中国石化汽车充电站(嶂农贸市场充电站),汽车服务;充电站;充电站,117.90399,31.62481,半汤街道嶂综合农贸市场,安徽省,合肥市,巢湖市
国家电网汽车充电站(安徽省合肥市巢湖市半汤交流充电站),汽车服务;充电站;充电站,117.914163,31.636456,规划支路半汤供电所停车场,安徽省,合肥市,巢湖市
能效邻里共享汽车充电站(绿源聚龙湾直流快充),汽车服务;充电站;充电站,117.91176,31.628222,48号车位,安徽省,合肥市,巢湖市
云快充汽车充电站(巢湖琥珀云台充电场站),汽车服务;充电站;充电站,117.903105,31.619024,华阳路与金湖大道交叉口,安徽省,合肥市,巢湖市
汽车充电站(中油国际亚父路加油加气充电站),汽车服务;充电站;充电站,117.904497,31.601292,亚父路辅路与巢二路交叉口东北260米,安徽省,合肥市,巢湖市
蔚享天成汽车充电站(巢湖学院综合楼十号楼充电站),汽车服务;充电站;充电站,117.92681,31.640856,巢湖学院综合楼十号楼,安徽省,合肥市,巢湖市
蔚享天成汽车充电站(安徽省工人伴汤温泉疗养院),汽车服务;充电站;充电站,117.92236,31.644592,工人伴汤温泉疗养院巢湖市温泉路2号,安徽省,合肥市,巢湖市
特来电充电站(合肥金葡萄家园D区),汽车服务;充电站;充电站,117.373999,31.77516,大圩镇金葡萄家园D区地面停车场,安徽省,合肥市,包河区
云快充汽车充电站(滨湖卓越城文华园一期充电桩),汽车服务;充电站;充电站,117.372441,31.770415,西安路与泰山路交叉口,安徽省,合肥市,包河区
云快充汽车充电站(周谷堆电驰充电站),汽车服务;充电站;充电站,117.384643,31.835166,合裕路与钟油坊路交口弘皓大厦停车场,安徽省,合肥市,瑶海区
国家电网汽车充电站(安徽省合肥市瑶海区大兴出租车快充站二),汽车服务;充电站;充电站,117.379662,31.83585,大兴镇合裕路与钢红路交口西100米地面停车场,安徽省,合肥市,瑶海区
易佳电汽车充电站(易佳电蓝鲤电驰充电站),汽车服务;充电站;充电站,117.38437,31.835285,合裕路与钟油坊路交口弘皓大厦内地面停车场,安徽省,合肥市,瑶海区
云快充汽车充电站(联家快充唐安路直流站),汽车服务;充电站;充电站,117.406591,31.826307,撮镇镇大彭路合肥东方果品有限责任公司,安徽省,合肥市,肥东县
小桔充电汽车充电站(翔孚快享充合肥大兴政府小桔),汽车服务;充电站;充电站,117.372694,31.838053,大兴镇人民政府,安徽省,合肥市,瑶海区
塑云科技汽车充电站(徽京能源合肥超充站),汽车服务;充电站;充电站,117.392944,31.836307,水东路与裕溪路辅路交叉口东北120米,安徽省,合肥市,瑶海区
汽车充电站(合肥充电东宸里站),汽车服务;充电站;充电站,117.379475,31.838882,障山路与和平路交叉口南120米,安徽省,合肥市,瑶海区
云快充汽车充电站(能港),汽车服务;充电站;充电站,117.384749,31.799977,[],安徽省,合肥市,包河区
中国石化汽车充电站(泰山路充电站),汽车服务;充电站;充电站,117.37325,31.797981,骆岗街道中国石化泰山路加油站,安徽省,合肥市,包河区
弘电e充聚福家园充电站,汽车服务;充电站;充电站,117.342448,31.841062,枞阳路188号,安徽省,合肥市,瑶海区
汽车充电站(特来电包河Hyper昊铂中心充电站),汽车服务;充电站;充电站,117.351476,31.794419,繁华大道18号(园区内左转昊铂中心门口),安徽省,合肥市,包河区
特斯拉超级充电站(合肥市包河特斯拉中心),汽车服务;充电站;充电站,117.348755,31.800955,天津路2号14幢合肥包河特斯拉服务中心地面停车场/入口天津路,安徽省,合肥市,包河区
理想汽车充电站(理想5C超充站理想汽车合肥包河零售中心),汽车服务;充电站;充电站,117.34912,31.798952,天津路5号理想汽车零售中心,安徽省,合肥市,包河区
中国石化汽车充电站(巢湖路充电站),汽车服务;充电站;充电站,117.361256,31.818128,巢湖路与兰渡路交口西北侧640米处,安徽省,合肥市,包河区
合肥充电南淝河码头公园充电站,汽车服务;充电站;充电站,117.343212,31.829609,巢湖南路与李成路西北,安徽省,合肥市,包河区
合肥充电滨河公园汽车充电站,汽车服务;充电站;充电站,117.348301,31.832756,南淝河大桥附近,安徽省,合肥市,瑶海区
蔚来换电站(合肥包河汽车城),汽车服务;充电站;充电站,117.346306,31.798825,长春街606号,安徽省,合肥市,包河区
云快充汽车充电站(鑫达雅),汽车服务;充电站;充电站,117.346053,31.838165,幸福路红旗产业园管会7号厂房,安徽省,合肥市,瑶海区
包河汽车城停车场充电站,汽车服务;充电站;充电站,117.346488,31.799063,车城支路与长春街交叉口北180米,安徽省,合肥市,包河区
汽车充电站(毅威充电站),汽车服务;充电站;充电站,117.335705,31.842683,裕溪路959号,安徽省,合肥市,瑶海区
保时捷汽车充电站(合肥包河保时捷中心充电站),汽车服务;充电站;充电站,117.35159,31.797213,骆岗街道长春街49号,安徽省,合肥市,包河区
依威能源汽车充电站(华盛・格林丽景),汽车服务;充电站;充电站,117.332531,31.793688,繁华大道6419号华盛・格林丽景,安徽省,合肥市,包河区
国翰汽车充电站,汽车服务;充电站;充电站,117.34775,31.795147,广汽本田包河店门口,安徽省,合肥市,包河区
云快充汽车充电站(百科智能合肥市大圩圩乐田园生态营地交直流),汽车服务;充电站;充电站,117.420087,31.767367,大圩镇科技园路与葡萄园路交口现代农业示范园8号圩乐田园生态营地,安徽省,合肥市,包河区
一水香绿色文化庄园电动汽车充电站,汽车服务;充电站;充电站,117.416944,31.767063,科技园路与葡萄园路交口大圩葡萄园一水香文化庄园内,安徽省,合肥市,包河区
中国石化汽车充电站(中国石化繁华东路加油站),汽车服务;充电站;充电站,117.477681,31.781119,中国石化繁华东路加油站,安徽省,合肥市,肥东县
易佳电汽车充电站(易佳电首达储能充电站),汽车服务;充电站;充电站,117.452255,31.827496,龙湖春江天越北面地面停车场,安徽省,合肥市,肥东县
特来电汽车充电站(肥东撮镇镇中心街超充站),汽车服务;充电站;充电站,117.468955,31.823199,撮镇镇火车站街地面停车场,安徽省,合肥市,肥东县
昆仑网电汽车充电站(中石油合肥肥东县皖源充电站),汽车服务;充电站;充电站,117.479699,31.809958,中石油加油站,安徽省,合肥市,肥东县
国家电网汽车充电站(安徽省合肥市肥东县撮镇有序交流充电站),汽车服务;充电站;充电站,117.483308,31.810507,店忠路与星光大道交叉口供电所外,安徽省,合肥市,肥东县
汽车充电站(撮镇公交充电站),汽车服务;充电站;充电站,117.481618,31.808574,裕溪路与撮镇路辅路交叉口西100米,安徽省,合肥市,肥东县
义和家园北区汽车充电站,汽车服务;充电站;充电站,117.479274,31.819005,义和商业街60号,安徽省,合肥市,肥东县
汽车充电站(泰和家园B区),汽车服务;充电站;充电站,117.490051,31.816929,撮镇镇泰和家园义和家园东区地下停车场负一层南侧,安徽省,合肥市,肥东县
汽车充电站(泰和家园),汽车服务;充电站;充电站,117.488755,31.815585,撮镇镇泰和家园小区地下车库5区下车库第二个路口右手侧,安徽省,合肥市,肥东县
汽车充电站,汽车服务;充电站;充电站,117.477193,31.813868,撮镇镇裕溪路138号,安徽省,合肥市,肥东县
易佳电汽车充电站(易佳电蓝鲤为民学校充电站),汽车服务;充电站;充电站,117.44793,31.893024,肥东新城开发区包公大道(安乐路北侧)为民中学,安徽省,合肥市,肥东县
容新智充汽车充电站(电途驿站),汽车服务;充电站;充电站,117.43218,31.901276,岱河路与祥和路交叉口东300米,安徽省,合肥市,肥东县
合肥充电新站区黉街停车场充电站,汽车服务;充电站;充电站,117.388817,31.932683,梦溪路和学府路交口黉街111号地下车库F区,安徽省,合肥市,瑶海区
星星充电汽车充电站(便利充学林公园),汽车服务;充电站;充电站,117.385075,31.899354,瑶海区工业园梦溪路学林公园内(南侧),安徽省,合肥市,瑶海区
新站区学林公园充电站,汽车服务;充电站;充电站,117.386257,31.903809,梦溪路与岱河路交叉口西南60米地面停车场,安徽省,合肥市,瑶海区
小桔充电汽车充电站(青益新能源文忠路小桔超充站),汽车服务;充电站;充电站,117.372986,31.924801,磨店街道文忠路24号文忠苑,安徽省,合肥市,瑶海区
中国石化汽车充电站(少荃湖充电站),汽车服务;充电站;充电站,117.400635,31.940157,磨店街道中国石化少荃湖加油站,安徽省,合肥市,瑶海区
星星充电汽车充电站(文忠路宏升超充站),汽车服务;充电站;充电站,117.371237,31.920175,磨店街道学林路宏升科技电缆,安徽省,合肥市,瑶海区
易佳电汽车充电站(易佳电浍水路迎宾楼充电站),汽车服务;充电站;充电站,117.37374,31.906427,国轩迎宾楼,安徽省,合肥市,瑶海区
汽车充电站(小舞充电站-少荃家园),汽车服务;充电站;充电站,117.378371,31.937341,文忠路1009号奇妙巡游南侧,安徽省,合肥市,瑶海区
汽车充电站(朗香书苑282),汽车服务;充电站;充电站,117.392,31.9208,烈山路朗香书苑,安徽省,合肥市,瑶海区
中国石化汽车充电站(繁华西路充电站),汽车服务;充电站;充电站,117.1193,31.781622,繁华西路与八公山路交口西500米处南侧,安徽省,合肥市,肥西县
小桔充电汽车充电站(合肥市肥西汉高公司),汽车服务;充电站;充电站,117.122549,31.774922,安徽汉高电力科技有限公司地面停车场(出入口),安徽省,合肥市,肥西县
合肥曜电华南城充电站,汽车服务;充电站;充电站,117.09262,31.768601,森林大道88号(铜锣寨路地铁站A口步行320米),安徽省,合肥市,肥西县
云快充汽车充电站(合肥蜀山花峰路电商园三期),汽车服务;充电站;充电站,117.095702,31.766708,花峰路电商园,安徽省,合肥市,肥西县
国家电网汽车充电站(安徽省合肥市肥西县迎江寺路桃花潭公园停车场交流充电站),汽车服务;充电站;充电站,117.143956,31.7777,长古路与迎江寺路交叉口西南140米桃花潭公园停车场,安徽省,合肥市,肥西县
皖小能汽车充电站(坤阳超充),汽车服务;充电站;充电站,117.156169,31.78955,"合肥市高新区宁西路30号坤阳超充站特别说明本站不支持线上开票,如需开票请致电",安徽省,合肥市,肥西县
汽车充电站(毅威电动桃花潭公园站),汽车服务;充电站;充电站,117.148491,31.775865,汤口路22号,安徽省,合肥市,肥西县
蔚享天成汽车充电站(玉兰大道桥下),汽车服务;充电站;充电站,117.15074,31.754803,玉兰大道玉兰大道桥下,安徽省,合肥市,肥西县
21千瓦汽车充电站(共享),汽车服务;充电站;充电站,117.160706,31.779245,宝能城二期,安徽省,合肥市,肥西县
合肥充电合肥市肥西县顺美社区汽车充电站,汽车服务;充电站;充电站,117.143793,31.773553,桃花镇文山路与汤口路交叉路口往南约50米(顺美家园),安徽省,合肥市,肥西县
云快充汽车充电站(工投立恒工业广场),汽车服务;充电站;充电站,117.143405,31.781371,工投立恒工业广场B-12B,安徽省,合肥市,肥西县
云快充汽车充电站(策能科技亿帆生物),汽车服务;充电站;充电站,117.140589,31.783002,繁华大道与文山路交口向西200米,安徽省,合肥市,肥西县
蔚享天成汽车充电站(盛万食品产业园充电桩),汽车服务;充电站;充电站,117.14544,31.753633,玉兰大道与文山路交叉口东北180米盛万食品产业园14栋,安徽省,合肥市,肥西县
汽车充电站(顺和家园南区A区),汽车服务;充电站;充电站,117.146965,31.767733,桃花镇顺和家园南区9栋地面停车位,安徽省,合肥市,肥西县
汽车充电站(顺和家园北区B区),汽车服务;充电站;充电站,117.145231,31.772001,桃花镇肥西县桃花镇和顺社区居民委员会顺和家园北区,安徽省,合肥市,肥西县
充小兽汽车充电站(兴联工业园站),汽车服务;充电站;专用充电站,117.13365,31.771948,兴联通讯有限公司(桥湾路北),安徽省,合肥市,肥西县
汽车充电站(顺和家园南区B区),汽车服务;充电站;充电站,117.145597,31.768283,桃花镇顺和家园南区地面停车位,安徽省,合肥市,肥西县
蔚来能源目的地充电站(内部使用合肥华翔汽车),汽车服务;充电站;充电站,117.133415,31.74947,肥西经开区湖东路25号,安徽省,合肥市,肥西县
中国石化汽车充电站(砂之船奥莱充电站),汽车服务;充电站;充电站,117.11942,31.83863,云飞路砂之船(合肥)奥莱,安徽省,合肥市,蜀山区
皖小能汽车充电站(中安创谷二期停车场),汽车服务;充电站;充电站,117.0932,31.8341,西北角近孔雀台路与云飞路交口,安徽省,合肥市,蜀山区
合肥充电高新区王咀湖公园充电站,汽车服务;充电站;充电站,117.118815,31.839571,彩虹路与长宁大道交口王咀湖公园地面停车场,安徽省,合肥市,蜀山区
络络充电汽车充电站(合肥创新院电站),汽车服务;充电站;充电站,117.123535,31.822725,石莲南路与习友路交叉口西北220米,安徽省,合肥市,蜀山区
达克云汽车充电站(离子医院充电站),汽车服务;充电站;充电站,117.116396,31.8244,离子医院西门进去左手边,安徽省,合肥市,蜀山区
充小兽超级充电站(中安创谷二期停车场站),汽车服务;充电站;充电站,117.09282,31.83477,中安创谷科技园二期云飞路与火龙地路交口,安徽省,合肥市,蜀山区
汽车充电站(鼎斛合肥1号),汽车服务;充电站;充电站,117.114845,31.798801,长宁大道516号,安徽省,合肥市,蜀山区
云快充汽车充电站(中安创谷),汽车服务;充电站;充电站,117.095084,31.830691,这中安创谷科技园二期望江西路920号,安徽省,合肥市,蜀山区
云快充汽车充电站(鼎斛),汽车服务;充电站;充电站,117.113952,31.798996,长宁大道519号,安徽省,合肥市,蜀山区
蔚来能源目的地充电站(内部使用合肥芯微电子),汽车服务;充电站;充电站,117.11435,31.804316,长宁大道789号合肥芯微电子园区,安徽省,合肥市,蜀山区
云快充汽车充电站(中科美络实验室电站),汽车服务;充电站;充电站,117.122933,31.821717,习友路创新工程院10楼,安徽省,合肥市,蜀山区
易佳电汽车充电站(易佳电中科智驰充电站),汽车服务;充电站;充电站,117.12207,31.821882,习友路2666号中科院创新院辅楼,安徽省,合肥市,蜀山区
汽车充电站(中国科学技术大学附属第一医院离子医学中心店),汽车服务;充电站;充电站,117.116377,31.824419,长宁大道888号(离子医院内),安徽省,合肥市,蜀山区
云快充汽车充电站(中安创谷中安创谷地上停车场),汽车服务;充电站;充电站,117.098642,31.834792,中安创谷科技园二期望江西路920号,安徽省,合肥市,蜀山区
蔚来能源目的地充电站(内部使用合肥博微产业园),汽车服务;充电站;充电站,117.09871,31.82306,蜀山区高新技术产业开发区方兴大道与习友路交口,安徽省,合肥市,蜀山区
蔚来能源目的地充电站(内部使用合肥3M材料技术工厂),汽车服务;充电站;充电站,117.11057,31.822311,天堂寨路与习友西路交叉口西北方向150米,安徽省,合肥市,蜀山区
星星充电汽车充电站(蔚尔永和家园超充站),汽车服务;充电站;充电站,117.11023,31.844223,高新技术产业开发区永和家园三期C组团,安徽省,合肥市,蜀山区
星星充电汽车充电站(星星充电-妇幼保健院西区),汽车服务;充电站;充电站,117.121758,31.851923,南岗镇石镜路安徽省妇幼保健院西区地面停车场,安徽省,合肥市,蜀山区
小桔充电汽车充电站(马达出行-合肥融胜大厦小桔),汽车服务;充电站;充电站,117.124072,31.851332,长江西路融胜大厦(桂庄地铁站D口步行240米),安徽省,合肥市,蜀山区
特来电汽车充电站(长安六号充电站),汽车服务;充电站;充电站,117.114793,31.864314,长宁大道长安汽车地面停车场内,安徽省,合肥市,蜀山区
星星充电汽车充电站(星星充电-妇幼保健院西区二期),汽车服务;充电站;充电站,117.121756,31.852291,南岗镇石镜路安徽省妇幼保健院西区,安徽省,合肥市,蜀山区
理想汽车充电站(理想5C超充站沪陕高速蜀山凡高公寓),汽车服务;充电站;充电站,117.124306,31.85104,南岗镇长江西路蜀山凡高公寓,安徽省,合肥市,蜀山区
依威能源汽车充电站(嘉仕顿国际酒店),汽车服务;充电站;充电站,117.127844,31.849772,蜀山区高新技术产业开发区石莲北路106号地面停车场,安徽省,合肥市,蜀山区
云快充汽车充电站(安徽纯源镀膜科技有限公司),汽车服务;充电站;充电站,117.09477,31.858574,高新区大别山路1599号环新集团联合厂房1南侧,安徽省,合肥市,蜀山区
依威能源汽车充电站(南岗中学宿舍小区),汽车服务;充电站;充电站,117.104488,31.851013,南岗镇长江西路合肥市侯店小学附近南岗中学小区,安徽省,合肥市,蜀山区
特来电充电站(惠民新村),汽车服务;充电站;充电站,117.128739,31.855553,磨子潭路与天龙路交叉口西北200米,安徽省,合肥市,蜀山区
汽车充电站(航空新城公共停车位A区),汽车服务;充电站;充电站,117.113064,31.854988,"南岗镇,长宁大道与磨子潭路交口南门右转直行50米",安徽省,合肥市,蜀山区
汽车充电站(永和家园B区),汽车服务;充电站;充电站,117.119767,31.846914,高新技术产业开发区永和家园14栋的东北角地面停车位,安徽省,合肥市,蜀山区
汽车充电站(永和家园A区),汽车服务;充电站;充电站,117.121542,31.848847,高新技术产业开发区永和家园31栋东侧地面停车位,安徽省,合肥市,蜀山区
依威能源汽车充电站(惠民新村),汽车服务;充电站;充电站,117.128716,31.855898,南岗镇惠民新村,安徽省,合肥市,蜀山区
宝马充电站(宝马站祥悦维修站),汽车服务;充电站;充电站,117.123556,31.85265,繁华大道与徽州大道交口西南侧JAC祥悦维修站门口,安徽省,合肥市,蜀山区
捷易电汽车充电站(高新联东U谷地下充电站),汽车服务;充电站;充电站,117.0908,31.862137,南岗镇联东U谷・合肥高新国际企业港,安徽省,合肥市,蜀山区
汽车充电站(长安汽车合肥公司测试专用),汽车服务;充电站;充电站,117.107718,31.859106,南岗镇合肥长安汽车有限公司(3号门)合肥汽车公司,安徽省,合肥市,蜀山区
星星充电汽车充电站(雍锦半岛店)(暂停营业),汽车服务;充电站;充电站,117.118188,31.8433,蓝光雍锦半岛地下停车场车-2359,安徽省,合肥市,蜀山区
特来电汽车充电站(客运西站超充站),汽车服务;充电站;充电站,117.137118,31.85123,南岗镇合肥汽车客运西站地面停车场15,安徽省,合肥市,蜀山区
星星充电汽车充电站(星星充电-长江西路),汽车服务;充电站;充电站,117.154119,31.861025,蜀山新产业园区雪霁路合肥宝龙工业园地面停车场,安徽省,合肥市,蜀山区
易佳电汽车充电站(易佳电蓝鲤客运西站充电站),汽车服务;充电站;充电站,117.13734,31.851477,长江西路与创新大道交口(汽车西站地铁站A口旁),安徽省,合肥市,蜀山区
特来电汽车充电站(四季花海A区超充站),汽车服务;充电站;充电站,117.164779,31.853005,蜀山新产业园区万泽路四季花海公园A区停车场,安徽省,合肥市,蜀山区
云快充汽车充电站(顺丰合肥产业园),汽车服务;充电站;充电站,117.150089,31.868186,振兴路666号顺丰产业园地面停车场051,安徽省,合肥市,蜀山区
云快充汽车充电站(蜀山人才公寓),汽车服务;充电站;充电站,117.161442,31.858479,井岗路1100号技侦综合楼及社区服务,安徽省,合肥市,蜀山区
云快充汽车充电站(南岗畅园东区店)(内部专用),汽车服务;充电站;充电站,117.139992,31.853154,南岗镇磨子潭路南岗畅园东区,安徽省,合肥市,蜀山区
宿来电汽车充电站(美禾充电站),汽车服务;充电站;充电站,117.14228,31.870541,天狮路699号,安徽省,合肥市,蜀山区
依威能源汽车充电站(新华城),汽车服务;充电站;充电站,117.136533,31.848786,百草街新华城内地下停车场1052,安徽省,合肥市,蜀山区
汽车充电站(弘电e充・山湖苑公租房二期),汽车服务;充电站;充电站,117.167237,31.866636,山湖苑公租房二期3号楼附近,安徽省,合肥市,蜀山区
汽车充电站(四季花海光储充一体化电动汽车超充站),汽车服务;充电站;充电站,117.157712,31.867218,湖光路1127号,安徽省,合肥市,蜀山区
依威能源汽车充电站(卓然居),汽车服务;充电站;充电站,117.15539,31.86687,汶水路与雪霁路交汇处东南角卓然居,安徽省,合肥市,蜀山区
特来电汽车充电站(合肥山湖苑),汽车服务;充电站;充电站,117.16791,31.862634,湖光路与蜀峰路交叉口西北40米,安徽省,合肥市,蜀山区
依威能源汽车充电站(南岗和园店),汽车服务;充电站;充电站,117.132395,31.856234,大别山路888号南岗和园地下停车场,安徽省,合肥市,蜀山区
国家电网汽车充电站(安徽省合肥市蜀山区科学岛固体所停车场交流充电站),汽车服务;充电站;充电站,117.157171,31.908692,科学岛固体所停车场,安徽省,合肥市,蜀山区
国家电网汽车充电站(安徽省合肥市蜀山区科学岛交叉科研楼停车场充电站),汽车服务;充电站;充电站,117.160321,31.908877,合肥科学岛交叉科研楼停车场,安徽省,合肥市,蜀山区
国家电网汽车充电站(安徽省合肥市蜀山区科学岛强磁场停车场充电站),汽车服务;充电站;充电站,117.160348,31.906562,科学岛强磁场停车场,安徽省,合肥市,蜀山区
汽车充电站(三十岗东瞿村谢家),汽车服务;充电站;充电站,117.139524,31.928968,东瞿路37号,安徽省,合肥市,庐阳区
国家电网汽车充电站(安徽省合肥市蜀山区科学岛安光所停车场充电站),汽车服务;充电站;充电站,117.165577,31.902942,安光所停车场,安徽省,合肥市,蜀山区
小桔充电汽车充电站(帕沃充电合肥市大铺头小桔),汽车服务;充电站;充电站,117.177605,31.857498,蜀山新产业园区井岗路与山湖路交叉口天猫养车后地面停车场,安徽省,合肥市,蜀山区
星星充电汽车充电站(星星充电-中翰幸福时光名庭),汽车服务;充电站;充电站,117.208974,31.860731,井岗镇中翰幸福时光名庭维也纳国际酒店,安徽省,合肥市,蜀山区
国家电网汽车充电站(安徽省合肥市蜀山区长江西路中石化合六路加气站充电站),汽车服务;充电站;充电站,117.180829,31.852171,井岗镇长江西路301号中国石化合六路CNG加气站地面停车场,安徽省,合肥市,蜀山区
易佳电汽车充电站(易佳电蓝鲤时光名庭充电站),汽车服务;充电站;充电站,117.208969,31.860693,创业大道时光名庭地面停车场,安徽省,合肥市,蜀山区
小桔充电汽车充电站(帕沃充电合肥市橄榄酒店小桔),汽车服务;充电站;充电站,117.183324,31.857039,橄榄酒店(大铺头店)地面停车场,安徽省,合肥市,蜀山区
小鹏超级充电站(开放运营-小鹏S4超快充合肥蜀山名车广场销服中心站),汽车服务;充电站;充电站,117.17576,31.853683,井岗镇长江西路1078号小鹏汽车合肥蜀山名车广场销售服务中心,安徽省,合肥市,蜀山区
充小兽汽车充电站(半岛公园站),汽车服务;充电站;充电站,117.191124,31.854445,半岛路1号中国光大银行(合肥大铺头社区支行)东54米,安徽省,合肥市,蜀山区
快来充汽车充电站(威马蜀山店),汽车服务;充电站;充电站,117.172997,31.8517,长江西路1018号合肥威马用户中心,安徽省,合肥市,蜀山区
毅威充电站(毅威电动科里科气站),汽车服务;充电站;充电站,117.180586,31.861019,稻香路1号,安徽省,合肥市,蜀山区
星星充电汽车充电站(星星充电-井岗路乾润),汽车服务;充电站;充电站,117.179525,31.857103,蜀山新产业园区蜀苑路合肥塞纳河畔井岗六号酒店内部停车场,安徽省,合肥市,蜀山区
国家电网汽车充电站(国祯健康大厦天达路),汽车服务;充电站;充电站,117.202884,31.845415,天达路16号地下停车场002,安徽省,合肥市,蜀山区
星星充电汽车充电站(蜀山区丽枫酒店),汽车服务;充电站;充电站,117.187314,31.852059,迎客松特产超市停车场(大蜀山地铁站B口步行110米),安徽省,合肥市,蜀山区
理想汽车充电站(理想超充站合肥蜀山区安之酒店),汽车服务;充电站;充电站,117.20764,31.85471,高新技术产业开发区长江西路679号合肥安之酒店,安徽省,合肥市,蜀山区
阳光充电汽车充电站(新城中心站),汽车服务;充电站;充电站,117.173351,31.860917,甘泉路398号,安徽省,合肥市,蜀山区
乾润新能源汽车充电站,汽车服务;充电站;充电站,117.179662,31.857175,蜀山新产业园区蜀苑路合肥塞纳河畔井岗六号酒店内部地面停车场57,安徽省,合肥市,蜀山区
理想汽车充电站(理想超充站合肥蜀山区井岗路希莱酒店),汽车服务;充电站;充电站,117.18087,31.856855,蜀山新产业园区井岗路希莱酒店,安徽省,合肥市,蜀山区
星星充电汽车充电站(安徽省射击运动管理中心),汽车服务;充电站;充电站,117.201809,31.868069,金凯花园西80米(植物园路南)安徽省射击运动管理中心,安徽省,合肥市,蜀山区
小桔充电汽车充电站(倍来充安之酒店小桔),汽车服务;充电站;充电站,117.208275,31.854688,蜀山区高新技术产业开发区三分地食府(高新店)合肥安之酒店(高新区科学大道地铁站店)安之酒店停车场,安徽省,合肥市,蜀山区
星星充电汽车充电站(星星充电明发商业广场),汽车服务;充电站;充电站,117.231386,31.899763,大杨镇四里河路明发商业广场,安徽省,合肥市,庐阳区
云快充汽车充电站(四里河路龙王塘岗),汽车服务;充电站;充电站,117.226059,31.903487,大杨街道四里河路,安徽省,合肥市,庐阳区
云快充汽车充电站(弘电e充・信长科技),汽车服务;充电站;充电站,117.226316,31.892636,春梅路342号,安徽省,合肥市,庐阳区
能效邻里共享汽车充电站(旗步隆汽车服务),汽车服务;充电站;充电站,117.23886,31.893343,旗步隆汽车服务(四店),安徽省,合肥市,庐阳区
中国石化汽车充电站(双水公园充电站),汽车服务;充电站;充电站,117.219749,31.89798,大杨镇八公山路墨荷园,安徽省,合肥市,庐阳区
昆仑网电汽车充电站(中石油合肥庐阳区宏大充电站),汽车服务;充电站;充电站,117.21414,31.93198,大杨镇北500米,安徽省,合肥市,庐阳区
云辉家电维修汽车充电桩,汽车服务;充电站;充电站,117.21041,31.93022,尚水湖畔晶园5栋101,安徽省,合肥市,庐阳区
依威能源汽车充电站(森林明珠小区),汽车服务;充电站;充电站,117.220056,31.895225,森林明珠小区地下停车场B1层,安徽省,合肥市,庐阳区
中国石化汽车充电站(滨水公园北充电站),汽车服务;充电站;充电站,117.24879,31.895922,大杨镇四里渠西路四里河滨水生态公园内(北侧),安徽省,合肥市,庐阳区
依威能源汽车充电站(滨水嘉苑),汽车服务;充电站;充电站,117.248396,31.903368,清源路与兰花路交叉口东北160米,安徽省,合肥市,庐阳区
星星充电汽车充电站(蔚尔庐州印超充站),汽车服务;充电站;充电站,117.206496,31.934885,草塘路麓湖融光幼儿园西边商业停车场,安徽省,合肥市,庐阳区
汽车充电站(中国石化魏武路加油站站),汽车服务;充电站;充电站,117.293437,31.984913,双凤经济开发区魏武路与淮南北路交口东南角,安徽省,合肥市,长丰县
蔚享天成汽车充电站(天明电器),汽车服务;充电站;充电站,117.31691,31.983961,天明电器有限公司,安徽省,合肥市,瑶海区
星星充电汽车充电站(合肥天茂),汽车服务;充电站;充电站,117.317588,31.985522,天茂机械有限公司,安徽省,合肥市,瑶海区
皖小能汽车充电站(中科智慧农业创新研究院),汽车服务;充电站;充电站,117.298294,31.981098,中科合肥智慧农业协同创新研究院淮南北路辅路,安徽省,合肥市,长丰县
广州蔚星汽车充电站(东元小区二期),汽车服务;充电站;充电站,117.32981,31.978338,三十头街道东元小区二期,安徽省,合肥市,瑶海区
汽车充电站(中煤安徽绿建科技产业园充电站内部专用-不对外),汽车服务;充电站;充电站,117.29835,31.956211,双墩镇东方大道平光制药股份有限公司,安徽省,合肥市,长丰县
能效邻里共享汽车充电站(恩泽商贸),汽车服务;充电站;充电站,117.31352,31.956772,安源物流北门对面,安徽省,合肥市,瑶海区
易佳电汽车充电站(易佳电魏武路充电站),汽车服务;充电站;充电站,117.294815,31.968876,魏武路与通淮路交叉口,安徽省,合肥市,长丰县
能效邻里共享汽车充电站(宜优百货),汽车服务;充电站;充电站,117.31493,31.956932,宜优佳百货隔壁,安徽省,合肥市,瑶海区
新电途汽车充电站(长丰金龙浩产业园),汽车服务;充电站;充电站,117.29092,32.009064,双凤经济开发区润和路001号,安徽省,合肥市,长丰县
小桔充电汽车充电站(帕沃充电合肥市恒大帝景小桔),汽车服务;充电站;充电站,117.250384,32.029502,双墩镇泉阳路辅路恒大帝景恒大嘉凯影城地下停车场,安徽省,合肥市,长丰县
易佳电汽车充电站(易佳电蜂鸟北城美食城充电站),汽车服务;充电站;充电站,117.25204,32.01128,双墩镇骱勇酚胄耸⒙方豢诒背敲朗吵峭３党∧,安徽省,合肥市,长丰县
小桔充电汽车充电站(双凤双服小桔快充站),汽车服务;充电站;充电站,117.260467,31.993465,中化石油合肥双凤加油站,安徽省,合肥市,长丰县
皖小能汽车充电站(双墩镇兴盛路停车场),汽车服务;充电站;充电站,117.251104,32.015322,双墩镇康乐路物华苑四期北区,安徽省,合肥市,长丰县
小桔充电汽车充电站(合肥北城荣徽苑),汽车服务;充电站;充电站,117.25079,32.013957,北城世纪城荣徽苑,安徽省,合肥市,长丰县
合肥充电北城梅冲湖公园充电站,汽车服务;充电站;充电站,117.250259,31.995556,君豪路与梅冲支路交口梅冲湖公园停车场,安徽省,合肥市,长丰县
汽车充电站,汽车服务;充电站;充电站,117.252591,32.031157,北城中环城一期地库A089号车位,安徽省,合肥市,长丰县
EVCHARGER租车充电站(梅冲湖公园停车场),汽车服务;充电站;充电站,117.250295,31.995406,君豪路与梅冲支路交口梅冲湖公园(北侧),安徽省,合肥市,长丰县
世动云充汽车充电站(世动云充合肥长丰陶楼镇充电站),汽车服务;充电站;充电站,117.09391,32.06442,吴山镇龙腾阁(贡鹅店),安徽省,合肥市,长丰县
双杰合肥吴山充换电站,汽车服务;充电站;充换电站,117.095454,32.09,206国道,安徽省,合肥市,长丰县
广州蔚星汽车充电站(世动云充合肥长丰陶楼镇充电站),汽车服务;充电站;充电站,117.09391,32.06442,吴山镇龙腾阁(贡鹅店),安徽省,合肥市,长丰县
皖小能汽车充电站(吴山镇井岗村),汽车服务;充电站;充电站,117.0919,32.060337,井岗社区居委会053县道与206国道交叉口西200米吴山镇交通运输管理所附近,安徽省,合肥市,长丰县
皖小能汽车充电站(岗集镇斗镇村),汽车服务;充电站;充电站,117.092606,32.05013,中共岗集镇斗镇村支部委员会,安徽省,合肥市,长丰县
皖小能汽车充电站(吴山镇五十埠社区),汽车服务;充电站;充电站,117.09488,32.07181,吴山镇五十埠社区退役军人服务管理站长丰县吴山镇五十埠社区居民委员会,安徽省,合肥市,长丰县
皖小能汽车充电站(吴山镇胜岗村),汽车服务;充电站;充电站,117.11751,32.066475,吴山镇胜岗村民委员会,安徽省,合肥市,长丰县
皖小能汽车充电站(岗集镇青峰岭村),汽车服务;充电站;充电站,117.11655,32.04742,岗集镇青峰岭村村民委员会,安徽省,合肥市,长丰县
皖小能汽车充电站(双墩镇汪岗村),汽车服务;充电站;充电站,117.14448,32.07311,双墩镇汪岗村村民委员会,安徽省,合肥市,长丰县
皖小能汽车充电站(陶楼镇沙井村),汽车服务;充电站;充电站,117.137665,32.087673,陶楼镇沙井村民委员会,安徽省,合肥市,长丰县
能效邻里共享汽车充电站(陶楼村),汽车服务;充电站;充电站,117.14217,32.1303,陶楼镇陶楼村15号,安徽省,合肥市,长丰县
云快充汽车充电站(陶楼)(内部专用),汽车服务;充电站;专用充电站,117.14647,32.132732,陶楼镇人民政府,安徽省,合肥市,长丰县
皖小能汽车充电站(陶楼镇观美社区),汽车服务;充电站;充电站,117.164116,32.118874,陶楼镇观美社区退役军人服务站陶楼镇019县道观美社区居委会,安徽省,合肥市,长丰县
皖小能汽车充电站(陶楼镇大桥社区),汽车服务;充电站;充电站,117.13837,32.10956,陶楼镇中共大桥社区党总支部委员会大桥社区居委会,安徽省,合肥市,长丰县
龙门寺服务区国家电网电动汽车充电站,汽车服务;充电站;充电站,117.103912,32.140184,龙门寺服务区(蚌合高速合肥方向)龙门寺服务区1F层,安徽省,合肥市,长丰县
国家电网汽车充电站(蚌合高速龙门寺服务区充电站蚌埠方向2),汽车服务;充电站;充电站,117.105549,32.137825,蚌合高速龙门寺服务区蚌埠方向,安徽省,合肥市,长丰县
龙门寺服务区国家电网电动汽车充电站,汽车服务;充电站;充电站,117.105508,32.13791,蚌合高速龙门寺服务区(蚌埠方向)地面停车场,安徽省,合肥市,长丰县
理想汽车充电站(理想5C超充站蚌合高速龙门寺服务区蚌埠方向),汽车服务;充电站;充电站,117.10583,32.138287,龙门寺服务区,安徽省,合肥市,长丰县
安徽交控龙门寺服务区电动汽车充电站(合肥方向),汽车服务;充电站;充电站,117.103503,32.138747,s17滁新高速合淮阜路段,安徽省,合肥市,长丰县
国家电网汽车充电站(蚌合高速龙门寺服务区充电站合肥方向),汽车服务;充电站;充电站,117.103809,32.140127,蚌合高速公路龙门寺服务区(合肥方向),安徽省,合肥市,长丰县
理想汽车充电站(理想5C超充站蚌合高速龙门寺服务区合肥方向),汽车服务;充电站;充电站,117.10367,32.13974,龙门寺服务区,安徽省,合肥市,长丰县
蔚来能源汽车充电站(S17蚌合高速龙门寺服务区蚌埠方向),汽车服务;充电站;充电站,117.10542,32.138596,龙门寺服务区与S17蚌合高速交叉口北300米,安徽省,合肥市,长丰县
蔚来能源汽车充电站(合肥方向S17蚌合高速龙门寺服务区),汽车服务;充电站;充电站,117.103485,32.139812,龙门寺服务区(S17西),安徽省,合肥市,长丰县
皖小能汽车充电站(吴山镇牌碑社区),汽车服务;充电站;充电站,117.09304,32.131386,吴山镇牌碑社区居民委员会,安徽省,合肥市,长丰县
皖小能汽车充电站(罗塘乡戴庙村),汽车服务;充电站;充电站,117.1095,32.446224,罗塘乡戴庙村委会,安徽省,合肥市,长丰县
皖小能汽车充电站(水湖镇俞岗村),汽车服务;充电站;充电站,117.09405,32.478535,水湖镇俞岗村村委会,安徽省,合肥市,长丰县
皖小能汽车充电站(罗塘乡邵桥村),汽车服务;充电站;充电站,117.09321,32.450573,罗塘乡邵桥村村民委员会,安徽省,合肥市,长丰县
皖小能汽车充电站(水湖镇杨公路),汽车服务;充电站;充电站,117.158745,32.47652,停车场(杨公路)长丰县物价局东门旁,安徽省,合肥市,长丰县
长丰县水家湖高铁站汽车充电站,汽车服务;充电站;充电站,117.169136,32.482451,下塘路与长淮路交叉口西北80米地面停车场,安徽省,合肥市,长丰县
皖小能汽车充电站(长丰政务综合楼停车场),汽车服务;充电站;充电站,117.16426,32.4618,"吴山路长丰县人民政府政务服务中心内,长丰县文化和旅游局西南50米",安徽省,合肥市,长丰县
星星充电汽车充电站(亦电科技),汽车服务;充电站;充电站,117.167632,32.478347,江宁路,安徽省,合肥市,长丰县
云快充汽车充电站(合来电长丰县百福家园),汽车服务;充电站;充电站,117.168228,32.480631,水湖镇长寿路南门,安徽省,合肥市,长丰县
云快充汽车充电站(长丰供水集团),汽车服务;充电站;充电站,117.158654,32.479291,水湖镇杨公路南二环交叉口,安徽省,合肥市,长丰县
闪烁充电长丰体育馆超级汽车充电站,汽车服务;充电站;充电站,117.160572,32.468817,长丰体育公园体育馆,安徽省,合肥市,长丰县
皖小能汽车充电站,汽车服务;充电站;充电站,117.164622,32.460628,长淮路63号,安徽省,合肥市,长丰县
皖小能汽车充电站(水湖镇双杨花园),汽车服务;充电站;充电站,117.160225,32.473373,双扬花园杨公路49号正东方向70米,安徽省,合肥市,长丰县
皖小能汽车充电站(水湖镇金瓦村),汽车服务;充电站;充电站,117.12973,32.470165,水湖镇金瓦村,安徽省,合肥市,长丰县
皖小能汽车充电站(水湖镇长岗村),汽车服务;充电站;充电站,117.13011,32.45047,水湖镇长岗村党群服务中心,安徽省,合肥市,长丰县
皖小能汽车充电站(水湖镇庙岗社区),汽车服务;充电站;充电站,117.13632,32.48691,水湖镇庙岗社区党群服务中心庙岗社区居委会,安徽省,合肥市,长丰县
皖小能汽车充电站(水湖镇谢户村),汽车服务;充电站;充电站,117.16577,32.523243,水湖镇谢户村谢户村村委会,安徽省,合肥市,长丰县
皖小能汽车充电站(水湖镇小岗村),汽车服务;充电站;充电站,117.15093,32.498283,小岗村村民委员会,安徽省,合肥市,长丰县
皖小能汽车充电站(水湖镇裴户村),汽车服务;充电站;充电站,117.12066,32.491554,水湖镇裴户村退役军人服务站,安徽省,合肥市,长丰县
皖小能汽车充电站(水湖镇蒋赵村),汽车服务;充电站;充电站,117.09935,32.507458,水湖镇蒋赵村村委会,安徽省,合肥市,长丰县
皖小能汽车充电站(水湖镇周圩村),汽车服务;充电站;充电站,117.12512,32.51288,水湖镇023乡道周圩村村民委员会,安徽省,合肥市,长丰县
星星充电汽车充电站(星星充电-融创乐园超充站),汽车服务;充电站;充电站,117.305984,31.700475,烟墩街道金庐支路合肥融创乐园,安徽省,合肥市,包河区
特来电充电站(捷豹超级充电站宝文美家站),汽车服务;充电站;充电站,117.301749,31.704967,庐州大道与漓江路交叉口西北角,安徽省,合肥市,包河区
特来电汽车充电站(融创茂超充站),汽车服务;充电站;充电站,117.305527,31.701773,融创茂停车场B区,安徽省,合肥市,包河区
开迈斯汽车充电站(合肥市融创美居酒店站),汽车服务;充电站;充电站,117.30676,31.702597,万年埠路356号融创美居酒店地面停车场,安徽省,合肥市,包河区
汽车充电站(极氪能源合肥融创茂极充站),汽车服务;充电站;充电站,117.305599,31.704797,庐州大道800号(万年埠地铁站1口步行410米)融创茂地面停车位A区,安徽省,合肥市,包河区
能效邻里共享汽车充电站(情书不包邮的超级无敌快速补能充电桩),汽车服务;充电站;充电站,117.29703,31.718275,信达-公园里地下停车场19幢楼前子母车位(车位10816),安徽省,合肥市,包河区
汽车充电站(联投新安里C区),汽车服务;充电站;充电站,117.308,31.715091,南昌路联投・新安里C区地下负一层人防车位车位号人防005-007、人防033-041,安徽省,合肥市,包河区
汽车充电站(联投新安里B区),汽车服务;充电站;充电站,117.304846,31.717046,万年埠街道庐山路联投・新安里B区4栋南侧地面停车场,安徽省,合肥市,包河区
汽车充电站(联投新安里A区),汽车服务;充电站;充电站,117.305008,31.716169,万年埠街道兰州拉面(新安里店)联投・新安里A区进门右转到1栋北地面停车场,安徽省,合肥市,包河区
国家电网汽车充电站(安徽省合肥市包河区滨湖名人馆交流充电站),汽车服务;充电站;充电站,117.327233,31.712588,金斗东路路口滨湖名人馆,安徽省,合肥市,包河区
国家电网汽车充电站(安徽省合肥市包河区滨湖渡江战役纪念馆交流充电站),汽车服务;充电站;充电站,117.329016,31.712431,金斗东路路口渡江战役纪念馆内地面停车场24(北侧),安徽省,合肥市,包河区
理想汽车充电站(理想超充站合肥包河区烟墩街道融创铂尔曼酒店),汽车服务;充电站;充电站,117.3115,31.705252,烟墩街道合肥融创铂尔曼酒店,安徽省,合肥市,包河区
汽车充电站(理想超充站合肥包河区烟墩街道融创铂尔曼酒店),汽车服务;充电站;充电站,117.311501,31.705252,烟墩街道合肥融创铂尔曼酒店,安徽省,合肥市,包河区
上海一电汽车充电站(金斗东路),汽车服务;充电站;充电站,117.328959,31.712473,金斗东路与云谷路辅路交叉口东南60米,安徽省,合肥市,包河区
易佳电汽车充电站(易佳电恒大中心充电站)(暂停营业),汽车服务;充电站;充电站,117.31504,31.708721,成都路与衡山路交口恒大中心停车场,安徽省,合肥市,包河区
开迈斯汽车充电站(合肥市滨湖心悦城站),汽车服务;充电站;充电站,117.31743,31.74178,紫云路与包河大道交口西北角心悦城购物中心地下负2层停车场,安徽省,合肥市,包河区
理想汽车充电站(理想超充站合肥包河区百大心悦城),汽车服务;充电站;充电站,117.3186,31.741234,义城街道紫云路辅路合肥百大心悦城,安徽省,合肥市,包河区
特来电汽车充电站(方兴社区慢充站),汽车服务;充电站;充电站,117.310676,31.743179,义城街道方兴社区,安徽省,合肥市,包河区
小鹏超级充电站(开放运营-小鹏S4超快充合肥百大心悦城站),汽车服务;充电站;充电站,117.317184,31.741505,滨湖新区包河大道与紫云路交口百心大悦城,安徽省,合肥市,包河区
极氪能源超级充电站(合肥百大心悦城极充站),汽车服务;充电站;充电站,117.31712,31.742012,滨湖新区包河大道与紫云路交口合肥百大心悦城地下停车场负一层A区,安徽省,合肥市,包河区
云快充汽车充电站(省直机关党校),汽车服务;充电站;充电站,117.32461,31.734574,安兴路6号,安徽省,合肥市,包河区
云快充汽车充电站(六安安硕血液透析中心),汽车服务;充电站;充电站,117.330139,31.734559,安盛路与徽风路交叉口西200米,安徽省,合肥市,包河区
汽车充电站(合肥百大心悦城极充站),汽车服务;充电站;充电站,117.317121,31.742012,滨湖新区包河大道与紫云路交口合肥百大心悦城地下停车场负一层A区,安徽省,合肥市,包河区
易佳电汽车充电站(易佳电蓝鲤滨湖爱琴海充电站),汽车服务;充电站;充电站,117.3008,31.73382,庐州大道与洞庭湖路交叉口滨湖爱琴海购物公园(负一层),安徽省,合肥市,包河区
国家电网汽车充电站(安徽省合肥市滨湖新区合肥市文化馆快充站),汽车服务;充电站;充电站,117.294277,31.725204,合肥市文化馆地面停车场54,安徽省,合肥市,包河区
特来电汽车充电站(蚁聚爱琴海超级充电站),汽车服务;充电站;充电站,117.30082,31.734243,社区合肥滨湖爱琴海购物公园B1层,安徽省,合肥市,包河区
中国石化汽车充电站(广西路充电站),汽车服务;充电站;充电站,117.293396,31.730185,滨湖世纪社区印象滨湖体育中心(东2门)滨湖塘西河公,安徽省,合肥市,包河区
小鹏超级充电站(开放运营-小鹏S4超快充合肥滨湖爱琴海购物中心站),汽车服务;充电站;充电站,117.300735,31.73419,庐州大道与洞庭湖路交口滨湖爱琴海购物中心,安徽省,合肥市,包河区
特来电充电站(金泉充电站),汽车服务;充电站;充电站,117.290724,31.737626,滨湖区长沙路与广西路交口西南角金泉小区北门停车场,安徽省,合肥市,包河区
开迈斯汽车充电站(唯品会城市奥莱滨湖店),汽车服务;充电站;充电站,117.304105,31.73393,滨湖区庐州大道与洞庭湖路交口唯品会合肥滨湖城市奥莱地下停车场B2层(D083-D088),安徽省,合肥市,包河区
云快充汽车充电站(大电官合肥市滨湖文体中心广场直流站),汽车服务;充电站;充电站,117.300764,31.723165,滨湖文体中心广场直流站,安徽省,合肥市,包河区
易佳电汽车充电站(易佳电蓝鲤金泉充电站),汽车服务;充电站;充电站,117.29054,31.737461,滨湖区长沙路于广西路交口西南角金泉小区北门停车场,安徽省,合肥市,包河区
汽车充电站(毅威电动塘西河公园站),汽车服务;充电站;充电站,117.299621,31.731199,中山路103号(塘西河公园地铁站B口步行400米),安徽省,合肥市,包河区
汽车充电站(小朗充电-利港银河广场负二层),汽车服务;充电站;充电站,117.303843,31.743641,利港银河广场北进口(福州路)地下停车场负二楼进地库后左转A区077-107车位,安徽省,合肥市,包河区
蚁聚爱琴海充电站,汽车服务;充电站;充电站,117.300817,31.734298,洞庭湖路与庐州大道交叉口西120米,安徽省,合肥市,包河区
星星充电汽车充电站(信达公园里三期),汽车服务;充电站;充电站,117.296001,31.719846,金斗路与杭州路交口信达公园里三期地下停车场A2区1335,安徽省,合肥市,包河区
上海一电汽车充电站(广西路),汽车服务;充电站;充电站,117.291902,31.730926,广西路与中山路交叉口东南60米,安徽省,合肥市,包河区
合肥充电・充电综合体(始宿交口),汽车服务;充电站;充电站,117.251241,31.710015,合肥经开区始信路与宿松路交口东北角,安徽省,合肥市,蜀山区
国家电网汽车充电站(安徽省合肥市经开区始信路充电站),汽车服务;充电站;充电站,117.251697,31.711748,国家电网滨湖智慧能源服务站地面停车场,安徽省,合肥市,蜀山区
中国石化汽车充电站(珠江路充电站),汽车服务;充电站;充电站,117.25043,31.703362,烟墩街道玉龙路48号中国石化珠江路加油站,安徽省,合肥市,包河区
国家电网汽车充电站(合肥市滨湖竹园小区派河充电站),汽车服务;充电站;充电站,117.26,31.71,竹园小区地下停车场(滨湖竹园地铁站D口步行350米),安徽省,合肥市,包河区
特来电汽车充电站(汉庭CBD充电站),汽车服务;充电站;充电站,117.263732,31.712655,蜀山区荷叶地街道潜山路辅路新城国际,安徽省,合肥市,包河区
小桔充电汽车充电站(翔孚快享充公园荟小桔),汽车服务;充电站;充电站,117.262632,31.697676,公元荟(贵阳路地铁站B口步行270米),安徽省,合肥市,包河区
云快充汽车充电站(国网包河区嘉陵江路),汽车服务;充电站;充电站,117.250985,31.703183,嘉陵江路与玉龙路交叉口西南方向190米,安徽省,合肥市,包河区
能效邻里共享汽车充电站(公元天下G15栋一单元能效共享充电桩),汽车服务;充电站;充电站,117.26104,31.696762,公元天下三期G15栋一单元地下停车场10015车位,安徽省,合肥市,包河区
云快充汽车充电站(国网滨湖智慧能源服务站),汽车服务;充电站;充电站,117.251193,31.711836,始信路与云谷路交叉口南160米,安徽省,合肥市,蜀山区
皖小能汽车充电站(师范附属第四小学南校区),汽车服务;充电站;充电站,117.26225,31.7092,合肥师范附小四小(南校区)云南路与成都路交汇处,安徽省,合肥市,包河区
泽清慧换电(始信路站),汽车服务;充电站;充电站,117.251306,31.711494,始信路与云谷路交叉口,安徽省,合肥市,蜀山区
中国石化汽车充电站(始信路充电站),汽车服务;充电站;充电站,117.25135,31.710844,临湖社区管理管委会中国石化始信路加油站,安徽省,合肥市,蜀山区
小桔充电汽车充电站(平顺滨湖云谷创新园小桔),汽车服务;充电站;充电站,117.276225,31.703311,烟墩街道四川路滨湖云谷创新园,安徽省,合肥市,包河区
中国石化汽车充电站(武云支路充电站),汽车服务;充电站;充电站,117.27712,31.715643,烟墩街道武汉路滨湖向上城,安徽省,合肥市,包河区
国家电网汽车充电站(合肥市滨湖顺园派河充电站),汽车服务;充电站;充电站,117.28,31.7,贵阳路与西藏路交口格美酒店门前停车场,安徽省,合肥市,包河区
蔚来能源目的地充电站(内部使用合肥交通银行省分行),汽车服务;充电站;充电站,117.284164,31.70213,徽州大道与嘉陵江路交叉路口,安徽省,合肥市,包河区
宿来电汽车充电站(文一春风里站),汽车服务;充电站;充电站,117.28442,31.704884,烟墩街道嘉陵江路396号,安徽省,合肥市,包河区
闪开汽车充电桩,汽车服务;充电站;充电站,117.27297,31.701222,都会1907小区附近,安徽省,合肥市,包河区
小桔充电汽车充电站(倍来充滨湖中翔广场小桔),汽车服务;充电站;充电站,117.2877,31.736261,滨湖世纪社区中翔商业中心中翔城B座大门口,安徽省,合肥市,包河区
小桔充电汽车充电站(翔孚快享充方圆荟小桔),汽车服务;充电站;充电站,117.287027,31.743759,滨湖世纪社区福州路方圆荟,安徽省,合肥市,包河区
国家电网汽车充电站(安徽派河滨湖家园小区东区停车场充电站),汽车服务;充电站;充电站,117.28047,31.732784,中山路与西藏路交口西北角家园小区东门停车场,安徽省,合肥市,包河区
易佳电汽车充电站(易佳电蓝鲤滨湖温泉充电站),汽车服务;充电站;充电站,117.28566,31.742975,徽州大道与福州路交口滨湖温泉地面停车场,安徽省,合肥市,包河区
小桔充电汽车充电站(马达出行-合肥滨湖凡高公寓小桔),汽车服务;充电站;充电站,117.275279,31.743492,临湖社区管理管委会及早酒店,安徽省,合肥市,蜀山区
云快充汽车充电站(大电官合肥市滨湖时代广场站),汽车服务;充电站;充电站,117.284612,31.722775,滨湖时代广场院内c8写字楼旁东北侧充电站,安徽省,合肥市,包河区
云快充汽车充电站(合肥海天科技自用),汽车服务;充电站;充电站,117.283317,31.741088,经济技术开发区紫云路(民营科技经济园内),安徽省,合肥市,包河区
蔚享天成汽车充电站(江汽七村汽车充电桩),汽车服务;充电站;充电站,117.27261,31.735573,紫云路进入小区后右转100米,安徽省,合肥市,蜀山区
云快充汽车充电站(合肥市第一中学艺术礼堂站),汽车服务;充电站;充电站,117.283119,31.736956,西藏路2356号合肥一中端馥堂,安徽省,合肥市,包河区
汽车充电站(凡高公寓),汽车服务;充电站;充电站,117.275779,31.743637,"五里墩街道,滨湖凡高公寓停车场进停车场后南侧地面充电站",安徽省,合肥市,蜀山区
特来电金泉超充站,汽车服务;充电站;充电站,117.290127,31.737627,金泉小区北门停车场,安徽省,合肥市,包河区
和行宿松路汽车充电站(暂停营业),汽车服务;充电站;充电站,117.270136,31.731256,宿松路江淮汽车乘用车制造公司,安徽省,合肥市,蜀山区
小桔充电汽车充电站(奕筱桔卧云农贸市场超充站),汽车服务;充电站;充电站,117.256174,31.729567,临湖社区管理管委会龙幡路3-1号卧云菜市场,安徽省,合肥市,蜀山区
国家电网汽车充电站(安徽省合肥市经开区江淮技术中心停车场交流充电站),汽车服务;充电站;充电站,117.264152,31.740517,紫云路江淮汽车技术中心停车场,安徽省,合肥市,蜀山区
星星充电汽车充电站(蔚尔卧云新村超充站),汽车服务;充电站;充电站,117.262156,31.728506,临湖社区管理管委会卧云路35号卧云新村,安徽省,合肥市,蜀山区
星星充电汽车充电站(星星充电-滨湖比亚迪),汽车服务;充电站;充电站,117.26625,31.727766,临湖社区管理管委会宿松路裕田汽车科技产业园地面停车场,安徽省,合肥市,蜀山区
弘电e充汽车充电站(助行充电远大尚林苑站),汽车服务;充电站;充电站,117.25127,31.726648,远大尚林苑,安徽省,合肥市,蜀山区
星星充电汽车充电站(34A50-广汽丰田合肥俊诚滨湖店),汽车服务;充电站;充电站,117.260679,31.726156,合肥市经济技术开发区宿松路与方兴大道交口西北角裕田汽车科技产业园4号厂房,安徽省,合肥市,蜀山区
合肥充电泰坦方兴大道汽车充电站,汽车服务;充电站;充电站,117.260073,31.726835,卧云路45号,安徽省,合肥市,蜀山区
和行科技紫云路充电站,汽车服务;充电站;充电站,117.258967,31.740367,紫云路江淮汽车技术中心,安徽省,合肥市,蜀山区
星星充电汽车充电站(34A50-广汽丰田合肥俊诚滨湖店),汽车服务;充电站;充电站,117.259485,31.727155,[],安徽省,合肥市,蜀山区
国家电网汽车充电站(安徽省合肥市肥西县上派镇上派路新站珍珠苑小区外停车场充电站),汽车服务;充电站;充电站,117.146588,31.713738,新站珍珠苑小区外停车场,安徽省,合肥市,肥西县
国家电网汽车充电站(安徽省合肥市肥西县上派镇馆驿花园小区外停车场充电站),汽车服务;充电站;充电站,117.143139,31.709656,上派镇上派路馆驿花园小区外,安徽省,合肥市,肥西县
中国石化汽车充电站(大地充电站),汽车服务;充电站;充电站,117.150327,31.712494,中国石化大地加油站,安徽省,合肥市,肥西县
星星充电汽车充电站(合肥亿力超级充电站),汽车服务;充电站;充电站,117.149746,31.699794,创新大道与人民路交口(亿力机械停车场),安徽省,合肥市,肥西县
小桔充电汽车充电站(倍来充肥西上园小桔),汽车服务;充电站;充电站,117.149802,31.700558,上派镇合铜路翰林水岸上园,安徽省,合肥市,肥西县
特来电汽车充电站(用世生活城充电站),汽车服务;充电站;充电站,117.155607,31.718729,上派镇用世・生活城(李湾地铁站C口步行110米),安徽省,合肥市,肥西县
特斯拉超级充电站(合肥市名邦保利广场),汽车服务;充电站;充电站,117.15402,31.713278,瑜城路与派河路交叉口北80米合肥名邦保利广场地下二层停车场6区/入口站下路,安徽省,合肥市,肥西县
合肥充电合肥市肥西县潭冲河公园汽车充电站,汽车服务;充电站;充电站,117.161028,31.703708,潭冲湖路潭冲河湿地公园西侧地面停车场,安徽省,合肥市,肥西县
理想汽车充电站(理想超充站合肥肥西县翰林水岸上园),汽车服务;充电站;充电站,117.149704,31.700876,上派镇人民路翰林水岸上园,安徽省,合肥市,肥西县
云快充汽车充电站(仪武路地下停车场),汽车服务;充电站;充电站,117.165882,31.715144,上派镇青年中路,安徽省,合肥市,肥西县
汽车充电站(合肥充电肥西供销社停车场站),汽车服务;充电站;充电站,117.163701,31.713572,四十埠社区供销社停车场内,安徽省,合肥市,肥西县
汽车充电站(瑞景锦居),汽车服务;充电站;充电站,117.154675,31.709193,上派镇瑞景锦居3栋东侧停车场内地面停车位,安徽省,合肥市,肥西县
中国石化汽车充电站(新桥充电站),汽车服务;充电站;充电站,117.154706,31.732193,中国石化新桥加油站,安徽省,合肥市,肥西县
国家电网汽车充电站(安徽省合肥市肥西县翡翠路桥下停车场交流充电站),汽车服务;充电站;充电站,117.160934,31.735897,翡翠路与江淮大道交叉口翡翠路桥下停车场,安徽省,合肥市,肥西县
星星充电汽车充电站(星星充电西南国际汽车城),汽车服务;充电站;充电站,117.154917,31.72994,翡翠南路与上小路交口东南角西南国际车城地面停车场,安徽省,合肥市,肥西县
开迈斯汽车充电站(合肥市肥西旭辉Cmall直流站),汽车服务;充电站;充电站,117.158055,31.738971,派河大道与翡翠路交口肥西旭辉Cmall3号门地面停车场,安徽省,合肥市,肥西县
合肥充电肥西县老县政府停车场汽车充电站,汽车服务;充电站;充电站,117.168278,31.72223,上派镇巢湖路与青年路交口东北方向200米停车场,安徽省,合肥市,肥西县
新电途汽车充电站(肥西华地紫金府小区),汽车服务;充电站;充电站,117.15711,31.719894,上派镇金寨路辅路华地紫金府,安徽省,合肥市,肥西县
合肥市肥西县新型家园充电站,汽车服务;充电站;充电站,117.153478,31.738931,集贤路桃花工业园新型家园幼儿园,安徽省,合肥市,肥西县
依威能源汽车充电站(中街・水晶城C区),汽车服务;充电站;充电站,117.169621,31.719525,永辉路与新华街交叉口西南200米,安徽省,合肥市,肥西县
汽车充电站(沪上人家北区A区),汽车服务;充电站;充电站,117.339711,31.767074,骆岗街道沪上人家北区,安徽省,合肥市,包河区
汽车充电站(沪上人家南区),汽车服务;充电站;充电站,117.340701,31.767831,骆岗街道沪上人家南区,安徽省,合肥市,包河区
中国石化汽车充电站(太原路充电站),汽车服务;充电站;充电站,117.364573,31.775447,中国石化太原路加油站,安徽省,合肥市,包河区
翔孚快享充汽车充电站(南翔汽车城超充站),汽车服务;充电站;充电站,117.359469,31.790056,南淝河路与沈阳路交口东南角,安徽省,合肥市,包河区
毛毛充充电站汽车充电站(毛毛充汽车超级充电站),汽车服务;充电站;充电站,117.36084,31.786077,"大连路南翔汽车智慧新城,南翔车都地下停车场南入口",安徽省,合肥市,包河区
公牛充电桩,汽车服务;充电站;充电站,117.362795,31.789017,南翔汽车智慧新城大二层4栋301号,安徽省,合肥市,包河区
易佳电汽车充电站(易佳电辽宁路花园大道充电站),汽车服务;充电站;充电站,117.36295,31.774353,辽宁路,安徽省,合肥市,包河区
汽车充电站(合肥工业大学智能制造技术研究院地下车库)(内部专用),汽车服务;充电站;充电站,117.370035,31.771901,大圩镇合肥工大智能院,安徽省,合肥市,包河区
能效邻里共享汽车充电站(南翔汽车城),汽车服务;充电站;充电站,117.35981,31.785995,南翔汽车智慧新城停车场,安徽省,合肥市,包河区
能效邻里共享汽车充电站(东冉智能),汽车服务;充电站;充电站,117.35728,31.78168,合肥东冉芯售货机产业基地,安徽省,合肥市,包河区
中国石化汽车充电站(花园大道充电站),汽车服务;充电站;充电站,117.344818,31.772523,花园大道与河南路交口向东约200米,安徽省,合肥市,包河区
美丽充包河内蒙路超级快充站,汽车服务;充电站;充电站,117.334677,31.791992,骆岗街道内蒙路地面停车场,安徽省,合肥市,包河区
星星充电汽车充电站(上海路超级),汽车服务;充电站;充电站,117.339808,31.785409,骆岗街道大连路合肥泰裕公司地面停车场,安徽省,合肥市,包河区
星星充电汽车充电站(美丽充包河内蒙路超级),汽车服务;充电站;充电站,117.334459,31.792089,骆岗街道繁华大道与内蒙路交叉口向南300米骆岗消防救援站对面地面停车场,安徽省,合肥市,包河区
易佳电汽车充电站(易佳电蓝鲤洁电充电站),汽车服务;充电站;充电站,117.348796,31.790412,天津路与沈阳路交叉口上汽名爵1385号内,安徽省,合肥市,包河区
特来电汽车充电站(滨湖阳光里充电站),汽车服务;充电站;充电站,117.342489,31.76924,骆岗街道河南路滨湖阳光里小区西门商业街陆大村党群服务中心门前,安徽省,合肥市,包河区
中国石化汽车充电站(兰州路充电站),汽车服务;充电站;充电站,117.335668,31.778576,骆岗街道河北路,安徽省,合肥市,包河区
特来电充电站(合肥上海路纵横高科超充站),汽车服务;充电站;充电站,117.338672,31.780576,上海路与延安路交口东南侧地面停车场,安徽省,合肥市,包河区
壳牌充电汽车充电站(壳牌合肥巨一动力地面慢充站),汽车服务;充电站;充电站,117.33947,31.790478,上海路20号巨一科技园顶层停车场,安徽省,合肥市,包河区
特来电充电站(合肥天津路中泰科技园超充站),汽车服务;充电站;充电站,117.349468,31.792664,繁华大道18号中泰科技园地面停车场,安徽省,合肥市,包河区
理想汽车充电站(理想超充站合肥包河区纵横高科),汽车服务;充电站;充电站,117.33867,31.780678,骆岗街道延安路72号纵横园区,安徽省,合肥市,包河区
特来电汽车充电站(洁电超充站),汽车服务;充电站;充电站,117.348438,31.79052,天津路与沈阳路交叉口上汽名爵1385号内,安徽省,合肥市,包河区
云快充汽车充电站(海迪拉),汽车服务;充电站;充电站,117.33957,31.77864,兰州路建智立方二期,安徽省,合肥市,包河区
云快充汽车充电站(徽商集团总部),汽车服务;充电站;充电站,117.332477,31.785861,徽商总部广场内(大连路地铁站A口旁),安徽省,合肥市,包河区
依威能源汽车充电站(欣然居),汽车服务;充电站;充电站,117.344219,31.771453,花园大道南50米欣然居地下停车场,安徽省,合肥市,包河区
特来电充电站(毅威出行中建二期)(内部专用),汽车服务;充电站;充电站,117.346899,31.783387,上海路与太原路交口东侧中建智立方二期地下车库洗车房北侧,安徽省,合肥市,包河区
云快充汽车充电站(合肥金泰克光储电站),汽车服务;充电站;充换电站,117.345261,31.776507,尧山路与山海关路交叉口南220米,安徽省,合肥市,包河区
云快充汽车充电站(普洛斯合肥肥东物流园充电站),汽车服务;充电站;充电站,117.445889,31.815623,东华路与新华路交叉口东北150米地面停车场,安徽省,合肥市,肥东县
特来电汽车充电站(合肥传化公路港充电站),汽车服务;充电站;充电站,117.436825,31.814216,撮镇镇新华路合肥传化信实公路港,安徽省,合肥市,肥东县
汽车充电站(慧鹏充换电站肥东传化站),汽车服务;充电站;充电站,117.439978,31.814878,裕溪路831号,安徽省,合肥市,肥东县
特来电汽车充电站(特来电合肥传化公路港充电站),汽车服务;充电站;充电站,117.438981,31.815095,地面停车场,安徽省,合肥市,肥东县
易佳电汽车充电站(易佳电蓝鲤肥东慧鹏换电站),汽车服务;充电站;充电站,117.44001,31.815145,慧鹏充电站,安徽省,合肥市,肥东县
中国石化汽车充电站(浙商城充电站),汽车服务;充电站;充电站,117.431123,31.830554,浙商城21号与22号楼中间,安徽省,合肥市,肥东县
皋源泛能肥东安燃充电站,汽车服务;充电站;充电站,117.442613,31.826512,安燃燃气龙塘综合站,安徽省,合肥市,肥东县
昆仑网电汽车充电站(中石油肥东县龙源充电站),汽车服务;充电站;充电站,117.442928,31.826044,采香环路和合马路交汇处西北角(中石油加油站内),安徽省,合肥市,肥东县
特来电汽车充电站(科逸裕隆大市场超充站),汽车服务;充电站;充电站,117.440844,31.825527,撮镇镇东华大道裕隆物流园地面停车场,安徽省,合肥市,肥东县
皖小能汽车充电站(龙塘综合能源港充换电),汽车服务;充电站;充电站,117.43556,31.826557,皖小能汽车充电站(龙塘综合能源港充换电)皖能集团综合能源港CNGH2充换电(龙塘站)燎原大道与裕溪路交叉口南80米,安徽省,合肥市,肥东县
特来电汽车充电站(合肥丰华汽车快充站),汽车服务;充电站;充电站,117.432201,31.828646,撮镇镇龙塘工业园合马路北侧地面停车场,安徽省,合肥市,肥东县
皖小能汽车充电站(皖小能电动汽车快充燎原大道),汽车服务;充电站;充电站,117.434616,31.824835,撮镇镇,安徽省,合肥市,肥东县
星星充电汽车充电站(星星充电-远洋庐h风景),汽车服务;充电站;充电站,117.45083,31.824929,撮镇镇翠微亭路远洋庐h风景,安徽省,合肥市,肥东县
汽车充电站(毅威电动鸿汇广场充电站),汽车服务;充电站;充电站,117.431317,31.828054,共青路34号,安徽省,合肥市,肥东县
汽车充电站(新安小区7栋),汽车服务;充电站;充电站,117.436492,31.821052,撮镇镇新安小区高层7幢前地面停车位,安徽省,合肥市,肥东县
汽车充电站(新安小区西区),汽车服务;充电站;充电站,117.433227,31.821165,"撮镇镇燎原大道新安小区大门南侧,户外停车场",安徽省,合肥市,肥东县
汽车充电站(新安小区1栋),汽车服务;充电站;充电站,117.434756,31.822189,撮镇镇非公企业党建服务中心新安小区1栋旁东区电瓶车库旁停车位,安徽省,合肥市,肥东县
中国石化汽车充电站(飞龙充电站),汽车服务;充电站;充电站,117.413109,31.832053,中国石化飞龙加油站,安徽省,合肥市,肥东县
星星充电汽车充电站(龙塘浙商城北门超充站),汽车服务;充电站;充电站,117.430652,31.832819,浙商城地面停车场,安徽省,合肥市,肥东县
壳牌充电汽车充电站(壳牌合肥东风大道地面快充站),汽车服务;充电站;充电站,117.41836,31.842209,肥东新城开发区龙塘东风大道,安徽省,合肥市,肥东县
星星充电汽车充电站(星星充电-蔚蓝华盛广场),汽车服务;充电站;充电站,117.415258,31.831663,撮镇镇华盛大运城徽状元贵宾楼(大运城店)地面停车场,安徽省,合肥市,肥东县
星星充电汽车充电站(华盛大运城2期2地库充电桩),汽车服务;充电站;充电站,117.414951,31.831846,裕溪路与东风大道交口2期地下停车场1660,安徽省,合肥市,肥东县
汽车充电站(幸福家园四期),汽车服务;充电站;充电站,117.423675,31.835843,撮镇镇幸福家园四期进门右转20米再左转20米地面停车位,安徽省,合肥市,肥东县
国家电网汽车充电站(安徽省合肥市肥东县裕溪路中石化飞龙加油站充电站)(暂停营业),汽车服务;充电站;充电站,117.413216,31.831953,撮镇镇中国石化飞龙加油站地面停车场,安徽省,合肥市,肥东县
特来电汽车充电站(恒兴超充站),汽车服务;充电站;充电站,117.418087,31.843039,东风大道辅路与新世界路交叉口南80米,安徽省,合肥市,肥东县
达克云汽车充电站(小豹充充尚泽琪瑞东郡大酒店充电站),汽车服务;充电站;充电站,117.41638,31.850658,撮镇镇东风大道与瑶岗路交叉口西北角街,安徽省,合肥市,肥东县
阳光充电汽车充电站(陌上智能充电站),汽车服务;充电站;充电站,117.42806,31.847645,撮镇镇瑶岗路南侧,安徽省,合肥市,肥东县
云快充汽车充电站(肥东尚琪瑞东郡小区地下车库A区),汽车服务;充电站;充电站,117.41477,31.847168,清流关路,安徽省,合肥市,肥东县
充电站壳牌合肥东风大道,汽车服务;充电站;充电站,117.418262,31.843391,新世界路2号,安徽省,合肥市,肥东县
中国石化汽车充电站(龙城充电站),汽车服务;充电站;充电站,117.44552,31.86017,中国石化龙城路加油站,安徽省,合肥市,肥东县
星星充电汽车充电站(星星充电合肥市永威机械设备有限公司),汽车服务;充电站;充电站,117.431,31.862036,肥东新城开发区祥和路合肥永威机械有限公司门口地面停车场,安徽省,合肥市,肥东县
中国石化汽车充电站(津源充电站),汽车服务;充电站;充电站,117.436196,31.875847,肥东新城开发区(双龙大酒店隔壁),安徽省,合肥市,肥东县
星星充电汽车充电站(数源琪瑞贵宾楼),汽车服务;充电站;充电站,117.442959,31.876739,龙泉路与桂王路交叉口琪瑞贵宾楼地面停车场,安徽省,合肥市,肥东县
广州蔚星汽车充电站(展宏充电站),汽车服务;充电站;充电站,117.43475,31.889294,店埠镇镇西路瑞跃智谷科技创新产业园,安徽省,合肥市,肥东县
云快充汽车充电站(费加罗婚礼艺术中心快充站),汽车服务;充电站;充电站,117.435301,31.892027,包公大道与镇西路交口东北角,安徽省,合肥市,肥东县
蔚享天成汽车充电站(物联物流),汽车服务;充电站;充电站,117.43281,31.888004,物联天下物流园东南(古河路北),安徽省,合肥市,肥东县
蔚来能源汽车充电站(合肥肥东农商银行),汽车服务;充电站;充电站,117.431587,31.873635,肥东新城开发区肥东农商银行(新总行)地面停车场,安徽省,合肥市,肥东县
毅威充电站(毅威电动禹州广场充电站),汽车服务;充电站;充电站,117.437669,31.875022,长江东路26号,安徽省,合肥市,肥东县
星星充电汽车充电站(万科红郡二期店),汽车服务;充电站;充电站,117.436963,31.87982,临泉东路与燎原路交口万科红郡二期地下停车场A区1193,安徽省,合肥市,肥东县
依威能源汽车充电站(恒缘・时代广场),汽车服务;充电站;充电站,117.43745,31.87629,合店路与长江东路交叉口东北100米恒缘・时代广场地面停车场,安徽省,合肥市,肥东县
星星充电汽车充电站(万科红郡一期店),汽车服务;充电站;充电站,117.436224,31.880961,临泉东路与燎原路交口万科红郡一期地下停车场B区1831,安徽省,合肥市,肥东县
合肥充电龙泉西路汽车充电站,汽车服务;充电站;充电站,117.450085,31.879175,景明巷与龙泉路交叉口西北160米,安徽省,合肥市,肥东县
汽车充电站(星星充电),汽车服务;充电站;充电站,117.434212,31.887362,古河路与镇西路交叉口西北40米,安徽省,合肥市,肥东县
依威能源汽车充电站(斌锋・御云府店),汽车服务;充电站;充电站,117.448837,31.888816,包公大道与桥头集路交叉口往南200米斌锋・御云府地下停车场150,安徽省,合肥市,肥东县
依威能源汽车充电站(御景花园南区),汽车服务;充电站;充电站,117.445738,31.87931,和平路南侧桂王路东侧御景花园南区地面停车场21-13,安徽省,合肥市,肥东县
福贵数源充电站,汽车服务;充电站;充电站,117.442895,31.876745,龙泉路与桂王路交叉口琪瑞贵宾楼地面停车场,安徽省,合肥市,肥东县
依威能源汽车充电站(御景花园北区),汽车服务;充电站;充电站,117.445318,31.882861,临泉东路与和平路交叉口南150米御景花园北区地面停车场28-5,安徽省,合肥市,肥东县
依威能源汽车充电站(斌锋・中心城店),汽车服务;充电站;充电站,117.445977,31.888591,古河路与桂王路交叉口北150米斌锋・中心城地下停车场,安徽省,合肥市,肥东县
依威能源汽车充电站(丽水云天店),汽车服务;充电站;充电站,117.443143,31.89062,肥东县经济开发区包公大道与桂王路交叉口西南角丽水云天地下停车场A56,安徽省,合肥市,肥东县
中国石化汽车充电站(包公大道充电站),汽车服务;充电站;充电站,117.423094,31.892131,中国石化包公大道加油站,安徽省,合肥市,肥东县
星星充电汽车充电站(好社惠),汽车服务;充电站;充电站,117.420795,31.886913,店埠镇古河路安徽美普达电气有限公司地面停车场,安徽省,合肥市,肥东县
特来电汽车充电站(肥东彩虹新城充电站),汽车服务;充电站;充电站,117.427997,31.87421,肥东经开区彩虹新城小区南门西侧(顾家家居前面),安徽省,合肥市,肥东县
特来电汽车充电站(井中集团充电站),汽车服务;充电站;充电站,117.411169,31.88056,店埠镇井中集团合肥光明包装制品有限公司,安徽省,合肥市,肥东县
福贵充电站(星星充电),汽车服务;充电站;充电站,117.414299,31.886092,肥东新城开发区古河路爱就爱全屋定制家居地面停车场,安徽省,合肥市,肥东县
易佳电汽车充电站(易佳电古河路好社惠充电站),汽车服务;充电站;充电站,117.42085,31.886904,店埠镇古河路好社惠,安徽省,合肥市,肥东县
小鹏超级充电站(开放运营-小鹏S4超快充合肥肥东好社惠站),汽车服务;充电站;充电站,117.4213,31.88688,古河路与柳孜路交叉口东100米合肥好社惠商贸有限公司,安徽省,合肥市,肥东县
星星充电汽车充电站(星星充电-徽商建材城),汽车服务;充电站;充电站,117.429662,31.872294,店埠镇幸福家具城徽商大市场,安徽省,合肥市,肥东县
理想汽车充电站(理想超充站合肥市肥东县古河路好社惠),汽车服务;充电站;充电站,117.421364,31.886684,店埠镇古河路好社惠商贸有限公司停车场,安徽省,合肥市,肥东县
特来电汽车充电站(徽商云创充电站),汽车服务;充电站;充电站,117.41939,31.871353,长江东路辅路徽商云创园区内地面停车场,安徽省,合肥市,肥东县
星星充电汽车充电站(星星充电-琪瑞康郡),汽车服务;充电站;充电站,117.430188,31.876468,店埠镇祥和路尚泽・琪瑞康郡,安徽省,合肥市,肥东县
星星充电汽车充电站(万科未来之光店),汽车服务;充电站;充电站,117.420565,31.875051,柳孜路与安居路交口往西约200米地下停车场141,安徽省,合肥市,肥东县
星星充电汽车充电站(万科未来之光店),汽车服务;充电站;充电站,117.420307,31.877088,柳孜路万科未来之光地下停车场A区242,安徽省,合肥市,肥东县
云快充汽车充电站(皖信培训学校),汽车服务;充电站;充电站,117.415306,31.886771,新城开发区临泉路与护城路交叉口西180米(皖信培训学校),安徽省,合肥市,肥东县
云快充汽车充电站(肥东古井君莱酒店慢充站),汽车服务;充电站;充电站,117.422293,31.892364,包公大道与龙脊山路交口明天大厦,安徽省,合肥市,肥东县
汽车充电站(陈大郢小区),汽车服务;充电站;充电站,117.428021,31.879117,祥和路陈大郢小区19栋西侧停车位,安徽省,合肥市,肥东县
易佳电汽车充电站(易佳电惠康德充电站)(暂停营业),汽车服务;充电站;充电站,117.42085,31.886904,店埠镇古河路好社惠,安徽省,合肥市,肥东县
理想汽车充电站(理想5C超充站京台高速肥东服务区北京方向),汽车服务;充电站;充电站,117.455692,31.854585,肥东服务区,安徽省,合肥市,肥东县
理想汽车充电站(理想5C超充站京台高速肥东服务区台北方向),汽车服务;充电站;充电站,117.455071,31.856659,龙城路6号,安徽省,合肥市,肥东县
国家电网汽车充电站(京台高速肥东服务区充电站台北方向),汽车服务;充电站;充电站,117.455818,31.857968,京台高速肥东服务区台北方向,安徽省,合肥市,肥东县
肥东服务区国家电网电动汽车充电站,汽车服务;充电站;充电站,117.45624,31.853879,京台高速肥东服务区(北京方向),安徽省,合肥市,肥东县
蔚来超级汽车充电站(肥东服务区台北方向),汽车服务;充电站;充电站,117.455226,31.857795,肥东服务区,安徽省,合肥市,肥东县
蔚来能源超级充电站(北京方向G3京台高速肥东服务区),汽车服务;充电站;充电站,117.45437,31.853477,肥东服务区(京台高速北京方向),安徽省,合肥市,肥东县
中国石化汽车充电站(众兴南充电站),汽车服务;充电站;充电站,117.45373,31.85415,店埠镇G3京台高速肥东服务区(京台高速北京方向),安徽省,合肥市,肥东县
蔚来能源超级充电站(台北方向G3京台高速肥东服务区),汽车服务;充电站;充电站,117.455317,31.857829,肥东服务区,安徽省,合肥市,肥东县
安徽交控肥东服务区电动汽车充电站(上海方向),汽车服务;充电站;充电站,117.455332,31.854887,合宁高速38公里处,安徽省,合肥市,肥东县
肥东县城南公园汽车充电站,汽车服务;充电站;充电站,117.45711,31.86595,新安江路城南公园(西侧),安徽省,合肥市,肥东县
星星充电汽车充电站(星星充电-琥珀名郡二期),汽车服务;充电站;充电站,117.470393,31.849436,店埠镇日出路琥珀名郡香榭里,安徽省,合肥市,肥东县
汽车充电站(星星充电・琥珀名郡香颂里充电站),汽车服务;充电站;充电站,117.469871,31.847443,店埠镇琥珀名郡香颂里(北门),安徽省,合肥市,肥东县
星星充电汽车充电站(星星充电-琥珀名郡香悦里站),汽车服务;充电站;充电站,117.471016,31.851719,店埠镇琥珀名郡香悦里(北门),安徽省,合肥市,肥东县
蔚来能源目的地充电站(内部使用合肥乐锦记食品),汽车服务;充电站;充电站,117.4546,31.85982,龙城路与四号路交叉路口往东约70米,安徽省,合肥市,肥东县
星星充电汽车充电站(星星充电肥东政务服务中心),汽车服务;充电站;充电站,117.485046,31.850736,店埠镇深秀北路和日出路交口朝北200米地面停车场,安徽省,合肥市,肥东县
春宇智充汽车充电站(亿佰购物广场充电站),汽车服务;充电站;充电站,117.475139,31.853103,店埠镇报镇路与站南路交口东南角(亿佰购物广场),安徽省,合肥市,肥东县
安徽深燃超充站,汽车服务;充电站;充电站,117.475502,31.843881,撮镇镇瑶岗路与北张路交叉口向南100米,安徽省,合肥市,肥东县
能效邻里共享汽车充电站(琥珀庄园地下车库B区510车位),汽车服务;充电站;充电站,117.47882,31.85382,蔚然路与站南路交叉口南120米,安徽省,合肥市,肥东县
合肥市肥东县和睦湖蔚然路停车场汽车充电站,汽车服务;充电站;充电站,117.480001,31.853415,蔚然路东侧,安徽省,合肥市,肥东县
广州蔚星汽车充电站(合肥东城高铁站维也纳酒店站),汽车服务;充电站;充电站,117.471507,31.843261,撮镇镇维也纳酒店(合肥东城高铁站店),安徽省,合肥市,肥东县
依威能源汽车充电站(斌锋未来城),汽车服务;充电站;充电站,117.47424,31.854591,站南路与店忠路交口斌锋未来城,安徽省,合肥市,肥东县
特来电汽车充电站(电闪雷鸣快充站),汽车服务;充电站;充电站,117.483856,31.886596,人民路与团结大道交口西北角电闪雷鸣充电站,安徽省,合肥市,肥东县
易佳电汽车充电站(易佳电国土超充站),汽车服务;充电站;充电站,117.48467,31.878504,团结大道与龙泉路辅路交叉口东北方向立体停车场,安徽省,合肥市,肥东县
中国石化汽车充电站(南环路充电站),汽车服务;充电站;充电站,117.47389,31.874882,中国石化南环路加油站(店埠河地铁站B口步行180米),安徽省,合肥市,肥东县
汽车充电站(数源浮槎山路站),汽车服务;充电站;充电站,117.476554,31.880271,浮槎山路与龙泉路交叉口东南角100米地面停车场,安徽省,合肥市,肥东县
星星充电汽车充电站(国土超充站),汽车服务;充电站;充电站,117.48467,31.878474,团结大道与龙泉路辅路交叉口东北方向立体停车场,安徽省,合肥市,肥东县
汽车充电站(八斗路拆迁恢复楼A区),汽车服务;充电站;充电站,117.471906,31.890642,"店埠镇,包公大道与梁园路交口东南角八斗路拆迁恢复楼A区进门右转地面停车位",安徽省,合肥市,肥东县
特来电汽车充电站(电闪雷鸣慢充桩),汽车服务;充电站;充电站,117.483795,31.886633,人民路与团结大道交口西北角电闪雷鸣充电站,安徽省,合肥市,肥东县
汽车充电站(宝源雅居),汽车服务;充电站;充电站,117.481916,31.889243,店埠镇宝源雅居,安徽省,合肥市,肥东县
依威能源汽车充电站(排头社区南区),汽车服务;充电站;充电站,117.484245,31.874186,店埠镇龙泉路辅路988号(排头地铁站A口步行410米),安徽省,合肥市,肥东县
汽车充电站(风景御园),汽车服务;充电站;充电站,117.480633,31.887314,人民路风景御园6号楼北侧停车位,安徽省,合肥市,肥东县
汽车充电站(包公学府花园B区),汽车服务;充电站;充电站,117.479241,31.885345,店埠镇舟牧教育包公学府花园物业办公室门口停车位,安徽省,合肥市,肥东县
汽车充电站(包公学府花园A区),汽车服务;充电站;充电站,117.478844,31.884953,店埠镇舟牧教育包公学府花园5栋二单元门口停车位进小区需登记,安徽省,合肥市,肥东县
特来电充电站(和平文化广场超充站),汽车服务;充电站;充电站,117.462377,31.890887,店埠镇和平文化广场地面停车场,安徽省,合肥市,肥东县
特来电充电站(文一名门河畔超充站),汽车服务;充电站;充电站,117.463747,31.87619,店埠镇规划支路二文一名门河畔地面停车场,安徽省,合肥市,肥东县
特来电汽车充电站(典泰慢充站),汽车服务;充电站;充电站,117.453574,31.877065,桥头集路与公园路交叉口东北角地面停车场,安徽省,合肥市,肥东县
广汽能源汽车充电站(昊铂合肥肥东吾悦广场超充站),汽车服务;充电站;充电站,117.457827,31.871313,长江东路与桥头集路交汇处B2停车场E176-185,安徽省,合肥市,肥东县
星星充电汽车充电站(星星充电-城关中学),汽车服务;充电站;充电站,117.457295,31.878829,店埠镇古城路肥东县城关中学,安徽省,合肥市,肥东县
特来电汽车充电站(和平文化广场二期超充站),汽车服务;充电站;充电站,117.463335,31.890156,店埠镇和平文化广场地面停车场,安徽省,合肥市,肥东县
